longitude,latitude,Hospital Name,Type,StreetNum,RoadName,RoadType,City Council,LocalityNa,Postcode,State
144.9833987,-37.80968063,East Melbourne Specialist Day Hospital,PRIVATE,23,CLARENDON,STREET,MELBOURNE, ,3002,VIC
145.1493,-37.9514,Windsor Avenue Day Surgery,PRIVATE,17,WINDSOR,AVENUE,GREATER DANDENONG, ,3171,VIC
145.3446527,-38.03458049,Hyperbaric Health Wound Centre Berwick,PRIVATE,3,GIBB,STREET,CASEY, ,3806,VIC
143.8322861,-37.54055256,Ballarat Day Procedure Centre,PRIVATE,1117-1123,HOWITT,STREET,BALLARAT, ,3355,VIC
145.1433793,-38.14818863,Bayside Day Procedure and Specialist Centre,PRIVATE,141,CRANBOURNE,ROAD,FRANKSTON, ,3199,VIC
144.2615,-36.7619,Bendigo Day Surgery,PRIVATE,1-7,CHUM,STREET,GREATER BENDIGO, ,3555,VIC
145.0412331,-37.92012465,Bentleigh Surgicentre,PRIVATE,157,JASPER,ROAD,GLEN EIRA, ,3204,VIC
145.3465186,-38.03349627,Berwick Surgicentre,PRIVATE,22,LANGMORE,LANE,CASEY, ,3806,VIC
144.9918171,-37.91255965,Brighton Plastic Surgery Centre,PRIVATE,206,NEW,STREET,BAYSIDE, ,3186,VIC
145.0618787,-37.69257276,Victorian Gut Centre,PRIVATE,119,PLENTY,ROAD,WHITTLESEA, ,3083,VIC
145.0568024,-37.96046698,Chesterville Day Hospital,PRIVATE,28,CHESTERVILLE,ROAD,KINGSTON, ,3192,VIC
144.9647711,-37.7450167,Coburg Endoscopy Centre,PRIVATE,15,MUNRO,STREET,MORELAND, ,3058,VIC
145.2233009,-37.97424741,Dandenong Eye Clinic & Day Surgery Centre,PRIVATE,1-3,FALKINER,CRESCENT,GREATER DANDENONG, ,3175,VIC
145.0175764,-37.78110112,Darebin Endoscopy Services,PRIVATE,42,STATION,STREET,DAREBIN, ,3078,VIC
145.1075879,-37.70532861,Diaverum Diamond Valley Dialysis Clinic,PRIVATE,15,GRIMSHAW,STREET,BANYULE, ,3088,VIC
144.9399083,-37.78867873,Diaverum North Melbourne Dialysis Clinic,PRIVATE,185,BOUNDARY,ROAD,MELBOURNE, ,3051,VIC
145.2275022,-37.81978389,Eastside Endoscopy Centre,PRIVATE,33,WANTIRNA,ROAD,MAROONDAH, ,3134,VIC
144.9236382,-37.76579341,Essendon Private Clinic,PRIVATE,665,MOUNT ALEXANDER,ROAD,MOONEE VALLEY, ,3039,VIC
145.0192142,-37.90043471,Glen Eira Day Surgery,PRIVATE,544,HAWTHORN,ROAD,GLEN EIRA, ,3162,VIC
145.0940256,-37.85808926,Glen Iris Private,PRIVATE,314,WARRIGAL,ROAD,BOROONDARA, ,3146,VIC
145.0601726,-37.73049186,Heidelberg Endoscopy and Day Surgery Centre,PRIVATE,177-179,NORTHERN,ROAD,BANYULE, ,3081,VIC
144.8284825,-37.86964791,Altona Endoscopy Centre,PRIVATE,3-5,SARGOOD,STREET,HOBSONS BAY, ,3018,VIC
144.6867,-37.8905,Werribee Endoscopy Centre,PRIVATE,179,PRINCES,HIGHWAY,WYNDHAM, ,3030,VIC
145.0449,-37.767,Ivanhoe Endoscopy Centre,PRIVATE,226,UPPER HEIDELBERG,ROAD,BANYULE, ,3079,VIC
144.9786716,-37.81676535,Jolimont Endoscopy Centre,PRIVATE,201,WELLINGTON,PARADE,MELBOURNE, ,3002,VIC
145.0305,-37.8515,Malvern Dialysis Clinic,PRIVATE,1133,MALVERN,ROAD,STONNINGTON, ,3144,VIC
145.1152,-37.7731,Manningham Day Procedure Centre,PRIVATE,503/200,HIGH,STREET,MANNINGHAM, ,3107,VIC
145.0304,-37.8878,Melbourne Day Surgery Centre,PRIVATE,961,GLEN HUNTLY,ROAD,GLEN EIRA, ,3162,VIC
144.9791,-37.8446,Melbourne Endoscopy,PRIVATE,517,ST KILDA,ROAD,MELBOURNE, ,3004,VIC
144.3632152,-38.15107303,Monash IVF Geelong,PRIVATE,73-79,LITTLE RYRIE,STREET,GREATER GEELONG, ,3220,VIC
145.1897,-37.9671,Noble Park Endoscopy Centre,PRIVATE,1304,HEATHERTON,ROAD,GREATER DANDENONG, ,3174,VIC
144.9093796,-37.77115427,Northwest Day Hospital,PRIVATE,221,MARIBYRNONG,ROAD,MOONEE VALLEY, ,3032,VIC
144.9981,-37.7176,Reservoir Private Hospital Day Procedure Centre,PRIVATE,73-75,PINE,STREET,DAREBIN, ,3073,VIC
144.8836475,-38.36183865,Rosebud SurgiCentre,PRIVATE,1537,POINT NEPEAN,ROAD,MORNINGTON PENINSULA, ,3940,VIC
144.941,-37.8145,Specialist Surgicentre Docklands,PRIVATE,22,RAKAIA,WAY,MELBOURNE, ,3008,VIC
145.1496,-37.9495,Springvale Endoscopy Centre and Day Hospital,PRIVATE,20,BALMORAL,AVENUE,GREATER DANDENONG, ,3171,VIC
144.7794,-37.744,St Albans Endoscopy Centre,PRIVATE,328-330,STATION,ROAD,BRIMBANK, ,3021,VIC
144.9822,-37.8731,St Kilda Day Hospital,PRIVATE,26A,DICKENS,STREET,PORT PHILLIP, ,3184,VIC
145.0393988,-37.86365343,Stonnington Day Surgery,PRIVATE,253,WATTLETREE,ROAD,STONNINGTON, ,3144,VIC
145.0178298,-37.87021315,Precision Ascend Rehabilitation Centre,PRIVATE,73,KOOYONG,ROAD,GLEN EIRA, ,3161,VIC
145.216202,-37.97733019,The Digestive Health Centre,PRIVATE,90,DAVID,STREET,GREATER DANDENONG, ,3175,VIC
145.165181,-37.8846424,The Glen Endoscopy Centre,PRIVATE,302,SPRINGVALE,ROAD,MONASH, ,3150,VIC
145.0282824,-37.86396884,Toorak - Malvern Day Surgery Centre,PRIVATE,30-32,GLENFERRIE,ROAD,STONNINGTON, ,3144,VIC
145.008,-37.8414,Toorak Cosmetic Surgery Day Centre,PRIVATE,109,MATHOURA,ROAD,STONNINGTON, ,3142,VIC
145.0555,-37.8325,Vision Day Surgery Camberwell,PRIVATE,25-27,DENMARK HILL,ROAD,BOROONDARA, ,3123,VIC
145.1195514,-37.81769263,Vision Day Surgery Eastern,PRIVATE,852,WHITEHORSE,ROAD,WHITEHORSE, ,3128,VIC
144.9803,-37.8506,Vision Laser St Kilda Road,PRIVATE,600-602,ST KILDA,ROAD,PORT PHILLIP, ,3004,VIC
145.1466179,-37.88034991,Waverley Endoscopy,PRIVATE,301,BLACKBURN,ROAD,MONASH, ,3149,VIC
144.6797482,-37.87748548,Westpoint Endoscopy Day Hospital,PRIVATE,243,HEATHS,ROAD,WYNDHAM, ,3030,VIC
144.8162628,-37.76103061,Sunshine Private Day Surgery,PRIVATE,145,FURLONG,ROAD,BRIMBANK, ,3021,VIC
144.8853872,-37.79198064,Western Gastroenterology Services,PRIVATE,30,ELEANOR,STREET,MARIBYRNONG, ,3011,VIC
144.7496,-37.5798,Goonawarra Day Hospital,PRIVATE,11,DORNOCH,DRIVE,HUME, ,3429,VIC
144.9837,-37.8251,Imaging@Olympic Park,PRIVATE,60,OLYMPIC,BOULEVARD,MELBOURNE, ,3004,VIC
144.7586258,-37.69335073,Sydenham Day Surgery,PRIVATE,566,MELTON,HIGHWAY,BRIMBANK, ,3037,VIC
144.9980639,-37.85608534,Windsor Private Hospital,PRIVATE,20-22,THE AVENUE, ,STONNINGTON, ,3181,VIC
145.0496165,-38.22543417,Beleura Private Hospital,PRIVATE,925,NEPEAN,HIGHWAY,MORNINGTON PENINSULA, ,3931,VIC
145.1552726,-37.83284916,Bellbird Private Hospital,PRIVATE,198,CANTERBURY,ROAD,WHITEHORSE, ,3130,VIC
144.9717073,-37.75648198,Brunswick Private Hospital,PRIVATE,82,MORELAND,ROAD,MORELAND, ,3056,VIC
144.9875479,-37.81566205,Epworth Cliveden,PRIVATE,29-37,SIMPSON,STREET,MELBOURNE, ,3002,VIC
145.0728365,-37.99062262,Como Private Hospital,PRIVATE,152-156,COMO,PARADE,KINGSTON, ,3195,VIC
145.0483,-37.8087,Cotham Private Hospital,PRIVATE,209,COTHAM,ROAD,BOROONDARA, ,3101,VIC
145.0942,-37.8573,Delmont Private Hospital,PRIVATE,298-308,WARRIGAL,ROAD,BOROONDARA, ,3146,VIC
145.1714915,-37.78999405,Donvale Rehabilitation Hospital,PRIVATE,1119-1121,DONCASTER,ROAD,MANNINGHAM, ,3109,VIC
144.9474001,-37.7232293,Dorset Rehabilitation Centre,PRIVATE,146,DERBY,STREET,MORELAND, ,3044,VIC
144.9841,-37.8107,Epworth Freemasons,PRIVATE,166,CLARENDON,STREET,MELBOURNE, ,3002,VIC
144.9928716,-37.81765919,Epworth Richmond,PRIVATE,89,BRIDGE,ROAD,YARRA, ,3121,VIC
145.0025924,-37.91368926,Epworth Rehabilitation Brighton,PRIVATE,85-93,WILSON,STREET,BAYSIDE, ,3186,VIC
145.0546326,-37.84594303,Epworth Rehabilitation Camberwell,PRIVATE,888,TOORAK,ROAD,BOROONDARA, ,3124,VIC
144.9547628,-37.79895826,Frances Perry House,PRIVATE,20,FLEMINGTON,ROAD,MELBOURNE, ,3052,VIC
144.364398,-38.15103532,Geelong Private Hospital,PRIVATE,56-58,BELLERINE,STREET,GREATER GEELONG, ,3220,VIC
145.0309157,-37.81934502,Glenferrie Private Hospital,PRIVATE,29,HILDA,CRESCENT,BOROONDARA, ,3122,VIC
145.1208373,-37.92086339,Jessie McPherson Private Hospital,PRIVATE,246,CLAYTON,ROAD,MONASH, ,3168,VIC
144.9583,-37.7546,John Fawkner Private Hospital,PRIVATE,275,MORELAND,ROAD,MORELAND, ,3058,VIC
145.2276951,-37.84890356,Knox Private Hospital,PRIVATE,262,MOUNTAIN,HIGHWAY,KNOX, ,3152,VIC
145.00373,-37.94243117,Linacre Private Hospital,PRIVATE,12-16,LINACRE,ROAD,BAYSIDE, ,3188,VIC
145.0811181,-37.82745243,Linley Clinic,PRIVATE,25,BRYSON,STREET,BOROONDARA, ,3126,VIC
145.0608,-37.8671,Malvern Private Hospital,PRIVATE,3-9,WILTON VALE,CRESCENT,STONNINGTON, ,3145,VIC
146.4187,-38.2151,Maryvale Private Hospital,PRIVATE,286,MARYVALE,ROAD,LATROBE, ,3840,VIC
145.0031,-37.8698,Masada Private Hospital,PRIVATE,24-48,BALACLAVA,ROAD,GLEN EIRA, ,3183,VIC
142.1453,-34.1848,Mildura Health Private Hospital,PRIVATE,220-228,THIRTEENTH,STREET,MILDURA, ,3500,VIC
145.1942966,-37.81048049,Mitcham Private Hospital,PRIVATE,25-27,DONCASTER EAST,ROAD,WHITEHORSE, ,3132,VIC
145.1206,-37.9218,Monash Surgical Private Hospital,PRIVATE,252-256,CLAYTON,ROAD,MONASH, ,3168,VIC
146.8761,-36.1386,Murray Valley Private Hospital,PRIVATE,2/69,NORDSVAN,DRIVE,WODONGA, ,3690,VIC
145.0312,-37.7634,North Eastern Rehabilitation Centre,PRIVATE,134-146,FORD,STREET,BANYULE, ,3079,VIC
145.0619,-37.6913,Northpark Private Hospital,PRIVATE,10,GREENHILLS,ROAD,WHITTLESEA, ,3083,VIC
145.1701086,-38.15780753,Peninsula Private Hospital,PRIVATE,525,MCCLELLAND,DRIVE,FRANKSTON, ,3910,VIC
145.2439,-37.8114,Ringwood Private Hospital,PRIVATE,36,MT DANDENONG,ROAD,MAROONDAH, ,3135,VIC
145.4108,-36.3593,Shepparton Private Hospital,PRIVATE,20,FITZGERALD,STREET,GREATER SHEPPARTON, ,3630,VIC
145.1217,-37.9184,Sir John Monash Private Hospital,PRIVATE,212-220,CLAYTON,ROAD,MONASH, ,3168,VIC
145.1925,-37.9657,South Eastern Private Hospital,PRIVATE,313-329,PRINCES,HIGHWAY,GREATER DANDENONG, ,3174,VIC
145.2133,-37.97,St John of God Pinelodge Clinic,PRIVATE,1480-1486,HEATHERTON,ROAD,GREATER DANDENONG, ,3175,VIC
144.9844614,-37.81192888,St Vincent's Private Hospital East Melbourne,PRIVATE,159,GREY,STREET,MELBOURNE, ,3002,VIC
144.9760382,-37.80785473,St Vincent's Private Hospital Fitzroy,PRIVATE,59-61,VICTORIA,PARADE,YARRA, ,3065,VIC
144.9721367,-37.834298,Albert Road Clinic,PRIVATE,31-33,ALBERT,ROAD,PORT PHILLIP, ,3004,VIC
145.0413634,-38.22296983,The Bays Hospital - Mornington,PRIVATE,4,VALE,STREET,MORNINGTON PENINSULA, ,3931,VIC
144.3932,-38.182,The Geelong Clinic,PRIVATE,94-102,TOWNSEND,ROAD,GREATER GEELONG, ,3219,VIC
145.0445003,-37.71653676,Hyperbaric Health Wound Centre Bundoora,PRIVATE,920,PLENTY,ROAD,DAREBIN, ,3083,VIC
145.1942034,-37.8113383,Mitcham Private Hospital,PRIVATE,36,DONCASTER EAST,ROAD,WHITEHORSE, ,3132,VIC
145.0078355,-37.74680419,Panch Day Surgery Centre,PRIVATE,84-90,HOTHAM,STREET,DAREBIN, ,3072,VIC
145.3452878,-38.04527898,Casey Radiation Oncology Centre,PRIVATE,2/55,KANGAN,DRIVE,CASEY, ,3806,VIC
145.2683,-37.8555,The Melbourne Eastern Private Hospital,PRIVATE,153-159,SCORESBY,ROAD,KNOX, ,3155,VIC
145.2131,-37.9388,The Valley Private Hospital,PRIVATE,535-559,POLICE,ROAD,MONASH, ,3170,VIC
144.9972,-37.8481,The Victoria Clinic,PRIVATE,320-324,MALVERN,ROAD,STONNINGTON, ,3181,VIC
145.1621446,-37.89837421,The Victorian Rehabilitation Centre,PRIVATE,499,SPRINGVALE,ROAD,MONASH, ,3150,VIC
145.024,-37.8065,St Vincent's Private Hospital Kew,PRIVATE,5,STUDLEY,AVENUE,BOROONDARA, ,3101,VIC
146.3122,-36.3492,Wangaratta Private Hospital,PRIVATE,134-150,TEMPLETON,STREET,WANGARATTA, ,3677,VIC
145.0603,-37.7551,Warringal Private Hospital,PRIVATE,216,BURGUNDY,STREET,BANYULE, ,3084,VIC
145.1457,-37.8847,Waverley Private Hospital,PRIVATE,343-357,BLACKBURN,ROAD,MONASH, ,3149,VIC
144.885643,-37.79305693,Western Private Hospital,PRIVATE,1-9,MARION,STREET,MARIBYRNONG, ,3011,VIC
145.0228541,-37.82130969,Epworth Hawthorn,PRIVATE,46-52,BURWOOD,ROAD,BOROONDARA, ,3122,VIC
145.0079376,-37.90656151,Mandometer Brighton,PRIVATE,412-414,BAY,STREET,BAYSIDE, ,3186,VIC
144.9749984,-37.80848966,Victoria Parade Surgery Centre,PRIVATE,100,VICTORIA,PARADE,MELBOURNE, ,3002,VIC
145.0366573,-37.93305221,Bayside Endoscopy Day Hospital,PRIVATE,437-441,SOUTH,ROAD,GLEN EIRA, ,3204,VIC
145.2629574,-37.84189678,Bayswater Day Procedure and Specialist Centre,PRIVATE,664,MOUNTAIN,HIGHWAY,KNOX, ,3153,VIC
145.2169102,-37.97723278,Corymbia House Day Hospital,PRIVATE,92-94,DAVID,STREET,GREATER DANDENONG, ,3175,VIC
144.9863067,-37.81630143,East Melbourne Day Procedure Centre,PRIVATE,114-116,WELLINGTON,PARADE,MELBOURNE, ,3002,VIC
145.1331,-38.1544,Frankston Private Hospital,PRIVATE,26,FRANKSTON-FLINDERS,ROAD,FRANKSTON, ,3199,VIC
145.0624,-37.7944,Kew Endoscopy,PRIVATE,828,HIGH,STREET,BOROONDARA, ,3102,VIC
145.0077,-37.8602,Marie Stopes International East St Kilda,PRIVATE,338,DANDENONG,ROAD,PORT PHILLIP, ,3183,VIC
145.1202,-37.9214,Melbourne Endoscopy Monash Day Procedure Centre,PRIVATE,277-279,CLAYTON,ROAD,MONASH, ,3168,VIC
144.9714358,-37.8145675,Melbourne Oral and Facial Surgery,PRIVATE,63,EXHIBITION,STREET,MELBOURNE, ,3000,VIC
145.1053,-37.8681,Skin Cancer Day Surgery,PRIVATE,19,CLEVELAND,ROAD,MONASH, ,3147,VIC
145.132,-38.146,"Southern Eye Centre, Day Surgery & Laser Clinic",PRIVATE,42-44,CRANBOURNE,ROAD,FRANKSTON, ,3199,VIC
144.3662,-38.1491,Specialist Surgicentre Geelong,PRIVATE,200,MALOP,STREET,GREATER GEELONG, ,3220,VIC
145.2887737,-37.80898803,Marie Stopes International Maroondah,PRIVATE,415,DORSET,ROAD,MAROONDAH, ,3136,VIC
145.2685,-38.0315,The Hampton Park Women's Health Care Centre,PRIVATE,4,WARANA,DRIVE,CASEY, ,3976,VIC
144.8951,-37.8005,Vision Day Surgery Footscray,PRIVATE,89,PAISLEY,STREET,MARIBYRNONG, ,3011,VIC
144.8338306,-37.71966534,Keilor Private,PRIVATE,12A,KENNEDY,STREET,BRIMBANK, ,3036,VIC
144.9915302,-37.91188999,Cabrini Brighton,PRIVATE,237-243,NEW,STREET,BAYSIDE, ,3186,VIC
145.0101373,-37.8849707,Cabrini Hopetoun Rehabilitation,PRIVATE,2-6,HOPETOUN,STREET,GLEN EIRA, ,3185,VIC
145.0335587,-37.8624645,Cabrini Malvern,PRIVATE,183,WATTLETREE,ROAD,STONNINGTON, ,3144,VIC
145.008873,-37.8541202,Cabrini Prahran,PRIVATE,646-646A,HIGH,STREET,STONNINGTON, ,3181,VIC
145.0093215,-37.88552939,Cabrini Health Elsternwick Rehabilitation,PRIVATE,494-498,GLEN HUNTLY,ROAD,GLEN EIRA, ,3185,VIC
145.1195572,-37.81455357,Epworth Eastern,PRIVATE,1,ARNOLD,STREET,WHITEHORSE, ,3128,VIC
144.8853814,-37.74846709,The Essendon Private Hospital,PRIVATE,35,ROSEHILL,ROAD,MOONEE VALLEY, ,3040,VIC
145.0188302,-37.86894131,Melbourne MediBrain and MediSleep Centre,PRIVATE,631,INKERMAN,ROAD,GLEN EIRA, ,3161,VIC
144.9571,-37.799,Melbourne Private Hospital,PRIVATE,1F,ROYAL,PARADE,MELBOURNE, ,3052,VIC
143.8476,-37.5575,St John of God Ballarat Hospital,PRIVATE,101,DRUMMOND,STREET,BALLARAT, ,3350,VIC
144.2640013,-36.76207693,St John of God Bendigo Hospital,PRIVATE,133-145,LILY,STREET,GREATER BENDIGO, ,3550,VIC
145.3447,-38.0346,St John of God Berwick Hospital,PRIVATE,3,GIBB,STREET,CASEY, ,3806,VIC
144.3578138,-38.15130066,St John of God Geelong Hospital,PRIVATE,80,MYERS,STREET,GREATER GEELONG, ,3220,VIC
142.4794,-38.3712,St John of God Warrnambool Hospital,PRIVATE,136,BOTANIC,ROAD,WARRNAMBOOL, ,3280,VIC
145.1563256,-38.15296378,St John of God Frankston Rehabilitation Hospital,PRIVATE,251-265,CRANBOURNE,ROAD,FRANKSTON, ,3199,VIC
144.9985,-37.855,The Avenue Hospital,PRIVATE,40,THE AVENUE, ,STONNINGTON, ,3181,VIC
144.9996505,-37.81476267,The Melbourne Clinic,PRIVATE,130,CHURCH,STREET,YARRA, ,3121,VIC
144.2226728,-37.59918077,Ballan District Health & Care,PRIVATE,33,COWIE,STREET,MOORABOOL, ,3342,VIC
145.5700935,-36.75917026,Euroa Health Inc,PRIVATE,36,KENNEDY,STREET,STRATHBOGIE, ,3666,VIC
146.7836685,-37.9768257,Heyfield Hospital Incorporated,PRIVATE,14-16,LICOLA,ROAD,WELLINGTON, ,3858,VIC
145.1501442,-36.78100413,Nagambie HealthCare,PRIVATE,22,CHURCH,STREET,STRATHBOGIE, ,3608,VIC
145.9540862,-38.02207501,Neerim District Health Service,PRIVATE,29-39,MAIN NEERIM,ROAD,BAW BAW, ,3831,VIC
145.3143677,-38.02470988,Casey Day Procedure and Specialist Centre,PRIVATE,30-32,VERDUN,DRIVE,CASEY, ,3805,VIC
145.0439287,-38.22774301,Mornington Endoscopy,PRIVATE,350,MAIN,Street,MORNINGTON PENINSULA, ,3931,VIC
145.1330654,-38.15441802,Frankston Radiation Oncology Centre,PRIVATE,26,FRANKSTON-FLINDERS,ROAD,FRANKSTON, ,3199,VIC
145.2435164,-37.81124829,Ringwood Radiation Oncology Centre,PRIVATE,36,MT DANDENONG,ROAD,MAROONDAH, ,3135,VIC
144.968003,-37.80481219,Skin & Cancer Foundation Incorporated,PRIVATE,80,DRUMMOND,STREET,MELBOURNE, ,3053,VIC
145.343015,-38.03277705,The Victorian Cosmetic Institute,PRIVATE,1/18-24A,CLYDE,ROAD,CASEY, ,3806,VIC
144.8856565,-37.79307482,Western Radiation Oncology Centre,PRIVATE,1-9,MARION,STREET,MARIBYRNONG, ,3011,VIC
144.7007566,-37.88703673,Wyndham Clinic,PRIVATE,242A,HOPPERS,LANE,WYNDHAM, ,3030,VIC
145.0092046,-37.65005434,Epping Radiation Oncology Centre,PRIVATE,230,COOPER,STREET,WHITTLESEA, ,3076,VIC
145.1664026,-37.83628535,Forest Hill Dialysis Clinic,PRIVATE,69,MAHONEYS,ROAD,WHITEHORSE, ,3131,VIC
145.0445003,-37.71653676,La Trobe Private Hospital,PRIVATE,920,PLENTY,ROAD,DAREBIN, ,3083,VIC
143.8519851,-37.5430748,Ballarat Surgicentre,PRIVATE,5-9,WOOD,STREET,BALLARAT, ,3350,VIC
145.3452922,-38.04526109,St John of God Berwick Day Oncology Centre,PRIVATE,1/55,KANGAN,DRIVE,CASEY, ,3806,VIC
145.1345672,-38.03371391,Chelsea Heights Day Surgery & Endoscopy,PRIVATE,93,WELLS,ROAD,KINGSTON, ,3196,VIC
144.3049395,-38.19422552,Epworth Geelong,PRIVATE,1,EPWORTH,PLACE,GREATER GEELONG, ,3216,VIC
144.8325251,-37.77769001,Dr Scope,PRIVATE,493,BALLARAT,ROAD,BRIMBANK, ,3020,VIC
145.1202884,-37.92090583,Monash House Private Hospital,PRIVATE,271,CLAYTON,ROAD,MONASH, ,3168,VIC
142.4740014,-38.38062334,South West Regional Cancer Centre,PRIVATE,26,RYOT,STREET,WARRNAMBOOL, ,3280,VIC
145.1995792,-37.85856492,Vermont Private Hospital,PRIVATE,645-647,BURWOOD,HWY,WHITEHORSE, ,3133,VIC
145.0500685,-37.93540507,Holmesglen Private Hospital,PRIVATE,488-490,SOUTH,ROAD,KINGSTON, ,3189,VIC
144.9822879,-37.80928733,Epworth Freemasons,PRIVATE,320,VICTORIA,PARADE,MELBOURNE, ,3002,VIC
144.8159972,-37.76104509,Fresenius Medical Care Sunshine Dialysis Clinic,PRIVATE,147-149,FURLONG,ROAD,BRIMBANK, ,3021,VIC
144.9745636,-37.80769738,Genesis Care Radiation Oncology Centre St Vincent's Hospital Melbourne,PRIVATE,41,VICTORIA,PARADE,YARRA, ,3065,VIC
142.1429,-34.1855,Mildura Base Hospital,PRIVATE,216-240,ONTARIO,AVENUE,MILDURA, ,3500,VIC
145.0335987,-37.8623273,Genesis Care Radiation Oncology Centre - Cabrini Malvern,PRIVATE,183,WATTLETREE,ROAD,STONNINGTON, ,3144,VIC
145.0167,-37.8824,Caulfield General Medical Centre,PUBLIC,260,KOOYONG,ROAD,Glen Eira (C),CAULFIELD,3162,VIC
146.9834,-37.9612,Central Gippsland Health Service (Maffra),PUBLIC,42-48,KENT,STREET,Wellington (S),MAFFRA,3860,VIC
147.0808,-38.108,Central Gippsland Health Service (Sale),PUBLIC,155,GUTHRIDGE,PARADE,Wellington (S),SALE,3850,VIC
145.6512,-35.9165,Cobram District Health,PUBLIC,24-32,BROADWAY,STREET,Moira (S),COBRAM,3644,VIC
144.2147,-35.8003,Cohuna District Hospital,PUBLIC,144-158,KING GEORGE,STREET,Gannawarra (S),COHUNA,3568,VIC
143.5839,-38.3415,Colac Area Health,PUBLIC,12,CONNOR,STREET,Colac-Otway (S),COLAC,3250,VIC
144.9198,-37.5964,Craigieburn Health Service,PUBLIC,274-304,CRAIGIEBURN,ROAD,Hume (C),CRAIGIEBURN,3064,VIC
145.2804,-38.1132,Cranbourne Integrated Care Centre,PUBLIC,140-154,SLADEN,STREET,Casey (C),CRANBOURNE,3977,VIC
145.2185,-37.977,Dandenong Hospital,PUBLIC,135,DAVID,STREET,Greater Dandenong (C),DANDENONG,3175,VIC
144.9645,-37.7993,Royal Dental Hospital (Melbourne),PUBLIC,720,SWANSTON,STREET,Melbourne (C),CARLTON,3053,VIC
144.4325,-37.6781,Djerriwarrh Health Services (Bacchus Marsh),PUBLIC,29-35,GRANT,STREET,Moorabool (S),BACCHUS MARSH,3340,VIC
142.6315902,-36.6366547,West Wimmera Health Service (Rupanyup),PUBLIC,89-91,CROMIE,STREET,Yarriambiack (S),RUPANYUP,3388,VIC
142.9323,-37.2787,East Grampians Health Service (Ararat),PUBLIC,9-29,GIRDLESTONE,STREET,Ararat (RC),ARARAT,3377,VIC
142.7459,-37.5451,East Grampians Health Service (Willaura),PUBLIC,21,DELACOMBE,WAY,Ararat (RC),WILLAURA,3379,VIC
142.9159,-35.9802,East Wimmera Health Service (Birchip),PUBLIC,24-26,DUNCAN,STREET,Buloke (S),BIRCHIP,3483,VIC
143.3525055,-36.26923847,East Wimmera Health Service (Charlton),PUBLIC,4,LEARMONTH,STREET,Buloke (S),CHARLTON,3525,VIC
142.9764,-36.3666,East Wimmera Health Service (Donald),PUBLIC,1A,AITKEN,AVENUE,Buloke (S),DONALD,3480,VIC
143.2465,-36.6094,East Wimmera Health Service (St Arnaud),PUBLIC,52,NORTH WESTERN,ROAD,Northern Grampians (S),ST ARNAUD,3478,VIC
143.234,-36.0787,East Wimmera Health Service (Wycheproof),PUBLIC,19,GRANDVIEW,STREET,Buloke (S),WYCHEPROOF,3527,VIC
144.7486,-36.1382,Echuca Regional Health,PUBLIC,226,SERVICE,STREET,Campaspe (S),ECHUCA,3564,VIC
141.2891,-37.0352,Edenhope & District Hospital,PUBLIC,124-134,ELIZABETH,STREET,West Wimmera (S),EDENHOPE,3318,VIC
145.1293,-38.1509,Frankston Hospital,PUBLIC,2,HASTINGS,ROAD,Frankston (C),FRANKSTON,3199,VIC
145.8285,-38.4304,Gippsland Southern Health Service (Korumburra),PUBLIC,65-77,BRIDGE,STREET,South Gippsland (S),KORUMBURRA,3950,VIC
145.9501,-38.4873,Gippsland Southern Health Service (Leongatha),PUBLIC,64,KOONWARRA,ROAD,South Gippsland (S),LEONGATHA,3953,VIC
145.4042,-36.3631,Shepparton Hospital,PUBLIC,2-48,GRAHAM,STREET,Greater Shepparton (C),SHEPPARTON,3630,VIC
145.2253,-36.4393,Tatura Public Hospital,PUBLIC,64-68,PARK,STREET,Greater Shepparton (C),TATURA,3616,VIC
145.0085,-36.5879,Waranga Memorial Hospital,PUBLIC,14,COYLE,STREET,Campaspe (S),RUSHWORTH,3612,VIC
145.7161,-37.1953,Alexandra District Hospital,PUBLIC,12,COOPER,STREET,Murrindindi (S),ALEXANDRA,3714,VIC
146.9661,-36.733,Alpine Health (Bright),PUBLIC,36-42,COBDEN,STREET,Alpine (S),BRIGHT,3741,VIC
147.1694,-36.7433,Alpine Health (Mount Beauty),PUBLIC,2-8,HOLLONDS,STREET,Alpine (S),MOUNT BEAUTY,3699,VIC
146.7291,-36.5544,Alpine Health (Myrtleford),PUBLIC,30-32,ODONNELL,AVENUE,Alpine (S),MYRTLEFORD,3737,VIC
145.3136,-37.8987,Angliss Hospital,PUBLIC,39,ALBERT,STREET,Knox (C),UPPER FERNTREE GULLY,3156,VIC
145.0604,-37.7565,Austin Hospital,PUBLIC,145,STUDLEY,ROAD,Banyule (C),HEIDELBERG,3084,VIC
145.0474,-37.7561,Heidelberg Repatriation Hospital,PUBLIC,300,WATERDALE,ROAD,Banyule (C),HEIDELBERG HEIGHTS,3081,VIC
147.6083,-37.8317,Bairnsdale Regional Health Service,PUBLIC,122,DAY,STREET,East Gippsland (S),BAIRNSDALE,3875,VIC
143.8474,-37.5587,Ballarat Hospital,PUBLIC,1,DRUMMOND,STREET,Ballarat (C),BALLARAT CENTRAL,3350,VIC
143.8419,-37.5639,"Queen Elizabeth Centre, The (Ballarat QEC)",PUBLIC,102,ASCOT,STREET,Ballarat (C),BALLARAT CENTRAL,3350,VIC
144.3654,-38.1512,University Hospital Geelong,PUBLIC,272-322,RYRIE,STREET,Greater Geelong (C),GEELONG,3220,VIC
144.336,-38.1193,McKellar Centre (Geelong),PUBLIC,45-99,BALLARAT,ROAD,Greater Geelong (C),NORTH GEELONG,3215,VIC
145.5809,-38.6082,Bass Coast Health,PUBLIC,235,GRAHAM,STREET,Bass Coast (S),WONTHAGGI,3995,VIC
143.3822,-37.4308,Beaufort & Skipton Health Service (Beaufort),PUBLIC,24-28,HAVELOCK,STREET,Pyrenees (S),BEAUFORT,3373,VIC
143.3676,-37.6842,Beaufort & Skipton Health Service (Skipton),PUBLIC,2,BLAKE,STREET,Corangamite (S),SKIPTON,3361,VIC
146.6914,-36.3495,Beechworth Health Service,PUBLIC,52,SYDNEY,ROAD,Indigo (S),BEECHWORTH,3747,VIC
145.9935,-36.5549,Benalla Health,PUBLIC,47-63,COSTER,STREET,Benalla (RC),BENALLA,3672,VIC
144.28,-36.7513,Bendigo Health (Anne Caudle),PUBLIC,100A,BARNARD,STREET,Greater Bendigo (C),BENDIGO,3550,VIC
144.2829,-36.7487,"Bendigo Hospital, The",PUBLIC,62,LUCAN,STREET,Greater Bendigo (C),BENDIGO,3550,VIC
143.7273,-36.112,Boort District Health,PUBLIC,31,KINIRY,STREET,Loddon (S),BOORT,3537,VIC
145.1183651,-37.81391215,Box Hill Hospital,PUBLIC,8,ARNOLD,STREET,Whitehorse (C),BOX HILL,3128,VIC
144.9134,-37.6842,Broadmeadows Health Service,PUBLIC,35-57,JOHNSTONE,STREET,Hume (C),JACANA,3047,VIC
145.0548,-37.7011,Bundoora Extended Care Centre,PUBLIC,1231,PLENTY,ROAD,Darebin (C),BUNDOORA,3083,VIC
145.0132,-37.8968,Calvary Health Care Bethlehem,PUBLIC,476-482,KOOYONG,ROAD,Glen Eira (C),CAULFIELD SOUTH,3162,VIC
145.0158,-37.805,Caritas Christi Hospice Ltd,PUBLIC,104,STUDLEY PARK,ROAD,Boroondara (C),KEW,3101,VIC
145.347,-38.045,Casey Hospital,PUBLIC,62-70,KANGAN,DRIVE,Casey (C),BERWICK,3806,VIC
141.3928,-37.5903,Casterton Memorial Hospital,PUBLIC,63,RUSSELL,STREET,Glenelg (S),CASTERTON,3311,VIC
145.5288,-37.6469,Healesville and District Hospital,PUBLIC,377,MAROONDAH,HIGHWAY,Yarra Ranges (S),HEALESVILLE,3777,VIC
143.8917,-37.4206,Creswick District Hospital,PUBLIC,1,NAPIER,STREET,Hepburn (S),CRESWICK,3363,VIC
144.1455,-37.3376,Daylesford District Hospital,PUBLIC,15,HOSPITAL,STREET,Hepburn (S),DAYLESFORD,3460,VIC
143.9842,-38.2431,Hesse Rural Health Service (Winchelsea),PUBLIC,8,GOSNEY,STREET,Surf Coast (S),WINCHELSEA,3241,VIC
141.6246,-38.1379,Heywood Rural Health,PUBLIC,21,BARCLAY,STREET,Glenelg (S),HEYWOOD,3304,VIC
143.8734,-36.5723,Inglewood and Districts Health Service,PUBLIC,3,HOSPITAL,STREET,Loddon (S),INGLEWOOD,3517,VIC
143.9176,-35.7242,Kerang District Health,PUBLIC,13-15,BURGOYNE,STREET,Gannawarra (S),KERANG,3579,VIC
144.9581,-37.3018,Kilmore and District Hospital,PUBLIC,1,ANDERSON,ROAD,Mitchell (S),KILMORE,3764,VIC
145.0799,-37.9544,Kingston Centre,PUBLIC,400,WARRIGAL,ROAD,Kingston (C),HEATHERTON,3202,VIC
145.4849499,-38.20156167,Kooweerup Regional Health Service,PUBLIC,215,ROSSITER,ROAD,Cardinia (S),KOO WEE RUP,3981,VIC
145.0422,-36.3153,Kyabram and District Health Services,PUBLIC,86-96,FENAUGHTY,STREET,Campaspe (S),KYABRAM,3620,VIC
144.4701,-37.2545,Kyneton District Health Service,PUBLIC,7-25,CAROLINE CHISHOLM,DRIVE,Macedon Ranges (S),KYNETON,3444,VIC
146.4714,-38.2188,Latrobe Regional Hospital,PUBLIC,10,VILLAGE,AVENUE,Latrobe (C),TRARALGON,3844,VIC
143.9808,-38.5455,Lorne Community Hospital,PUBLIC,1,ALBERT,STREET,Surf Coast (S),LORNE,3232,VIC
144.064,-36.9927,Maldon Hospital,PUBLIC,1,CHAPEL,STREET,Mount Alexander (S),MALDON,3463,VIC
142.3131,-35.0745,Mallee Track Health and Community Service (Ouyen),PUBLIC,28,BRITT,STREET,Mildura (RC),OUYEN,3490,VIC
142.8808,-35.051,Robinvale District Health Services (Managatang),PUBLIC,37-39,PIONEER,STREET,Swan Hill (RC),MANANGATANG,3546,VIC
146.0865084,-37.05760484,Mansfield District Hospital,PUBLIC,51-53,HIGHETT,STREET,Mansfield (S),MANSFIELD,3722,VIC
145.2554,-37.807,Maroondah Hospital,PUBLIC,1-15,DAVEY,DRIVE,Maroondah (C),RINGWOOD EAST,3135,VIC
143.7352,-36.8554,Maryborough District Health Service (Dunolly),PUBLIC,20,HAVELOCK,STREET,Central Goldfields (S),DUNOLLY,3472,VIC
143.7383,-37.0451,Maryborough District Health Service (Maryborough),PUBLIC,75,CLARENDON,STREET,Central Goldfields (S),MARYBOROUGH,3465,VIC
144.7097,-36.9261,Heathcote Health,PUBLIC,39-55,HOSPITAL,STREET,Greater Bendigo (C),HEATHCOTE,3523,VIC
144.559,-37.6865,Melton Health,PUBLIC,195-209,BARRIES,ROAD,Melton (S),MELTON WEST,3337,VIC
145.0609,-37.7563,Mercy Hospital for Women,PUBLIC,163,STUDLEY,ROAD,Banyule (C),HEIDELBERG,3084,VIC
142.1429,-34.1855,Mildura Base Hospital,PUBLIC,216-240,ONTARIO,AVENUE,Mildura (RC),MILDURA,3500,VIC
145.1224,-37.9205,Monash Medical Centre (Clayton),PUBLIC,246,CLAYTON,ROAD,Monash (C),CLAYTON,3168,VIC
145.0635,-37.9209,Monash Medical Centre (Moorabbin),PUBLIC,823-865,CENTRE,ROAD,Glen Eira (C),BENTLEIGH EAST,3165,VIC
142.2271,-38.3815,Moyne Health Services (Port Fairy),PUBLIC,32,VILLIERS,STREET,Moyne (S),PORT FAIRY,3284,VIC
144.2121,-37.0526,Castlemaine Health,PUBLIC,142,CORNISH,STREET,Mount Alexander (S),CASTLEMAINE,3450,VIC
145.1977,-36.0572,Nathalia District Hospital,PUBLIC,36-44,MCDONELL,STREET,Moira (S),NATHALIA,3638,VIC
146.3143,-36.3543,Northeast Health Wangaratta,PUBLIC,35-47,GREEN,STREET,Wangaratta (RC),WANGARATTA,3677,VIC
145.4438,-36.1,Numurkah District Health Service,PUBLIC,2,KATAMATITE-NATHALIA,ROAD,Moira (S),NUMURKAH,3636,VIC
145.0618,-37.8163,O'Connell Family Centre,PUBLIC,6,MONT ALBERT,ROAD,Boroondara (C),CANTERBURY,3126,VIC
147.5972,-37.0981,Omeo District Health,PUBLIC,10,EASTON,STREET,East Gippsland (S),OMEO,3898,VIC
148.4656,-37.7017,Orbost Regional Health,PUBLIC,104,BOUNDARY,ROAD,East Gippsland (S),ORBOST,3888,VIC
143.6646,-38.7539,Otway Health,PUBLIC,75,MCLACHLAN,STREET,Colac-Otway (S),APOLLO BAY,3233,VIC
145.164,-37.8524,"Peter James Centre, The",PUBLIC,321-345,BURWOOD,HIGHWAY,Whitehorse (C),FOREST HILL,3131,VIC
144.9566333,-37.79999855,Peter MacCallum Cancer Centre,PUBLIC,305,GRATTAN,STREET,Melbourne (C),MELBOURNE,3000,VIC
141.6062,-38.3412,Portland District Health,PUBLIC,141-151,BENTINCK,STREET,Glenelg (S),PORTLAND,3305,VIC
145.1783,-37.9722,"Queen Elizabeth Centre, The",PUBLIC,37-53,THOMAS,STREET,Greater Dandenong (C),NOBLE PARK,3174,VIC
142.782,-34.5845,"Robinvale District Health Services, Robinvale",PUBLIC,128-132,LATJE,ROAD,Swan Hill (RC),ROBINVALE,3549,VIC
144.6978,-36.3665,Rochester and Elmore District Health Service,PUBLIC,1,PASCOE,STREET,Campaspe (S),ROCHESTER,3561,VIC
144.8846,-38.3619,Rosebud Hospital,PUBLIC,1527,POINT NEPEAN,ROAD,Mornington Peninsula (S),CAPEL SOUND,3940,VIC
144.9559,-37.7992,Royal Melbourne Hospital,PUBLIC,300,GRATTAN,STREET,Melbourne (C),PARKVILLE,3052,VIC
144.9488,-37.7783,Royal Melbourne Hospital (Royal Park Campus),PUBLIC,34-56,POPLAR,ROAD,Melbourne (C),PARKVILLE,3052,VIC
145.0238,-37.7893,Royal Talbot Rehabilitation Centre,PUBLIC,1,YARRA,BOULEVARD,Boroondara (C),KEW,3101,VIC
142.3669,-35.7326,Rural Northwest Health (Hopetoun),PUBLIC,12,MITCHELL,PLACE,Yarriambiack (S),HOPETOUN,3396,VIC
142.3821,-36.2528,Rural Northwest Health (Warracknabeal),PUBLIC,18,DIMBOOLA,ROAD,Yarriambiack (S),WARRACKNABEAL,3393,VIC
145.0185,-37.961,Sandringham & District Memorial Hospital,PUBLIC,191-193,BLUFF,ROAD,Bayside (C),SANDRINGHAM,3191,VIC
145.1386,-37.0185,Seymour Health,PUBLIC,1,BRETONNEUX,STREET,Mitchell (S),SEYMOUR,3660,VIC
146.2062,-38.6587,South Gippsland Hospital (Foster),PUBLIC,83,STATION,ROAD,South Gippsland (S),FOSTER,3960,VIC
143.1379,-38.2371,South West Healthcare (Camperdown),PUBLIC,9,ROBINSON,STREET,Corangamite (S),CAMPERDOWN,3260,VIC
142.4728,-38.3804,South West Healthcare (Warrnambool),PUBLIC,25,RYOT,STREET,Warrnambool (C),WARRNAMBOOL,3280,VIC
145.0532,-37.8092,St George's Health Service (Aged Care),PUBLIC,283,COTHAM,ROAD,Boroondara (C),KEW,3101,VIC
144.9751,-37.8068,St Vincent's Hospital,PUBLIC,41,VICTORIA,PARADE,Yarra (C),FITZROY,3065,VIC
142.7814,-37.0594,Stawell Regional Health,PUBLIC,27-29,SLOANE,STREET,Northern Grampians (S),STAWELL,3380,VIC
144.816,-37.7599,Sunshine Hospital,PUBLIC,176-190,FURLONG,ROAD,Brimbank (C),ST ALBANS,3021,VIC
143.5566,-35.3406,Swan Hill District Health (Swan Hill),PUBLIC,50-54,SPLATT,STREET,Swan Hill (RC),SWAN HILL,3585,VIC
147.1839,-36.2138,Tallangatta Health Service,PUBLIC,25,BARREE,STREET,Towong (S),TALLANGATTA,3700,VIC
142.9024,-38.2394,Terang and Mortlake Health Service (Terang),PUBLIC,13,AUSTIN,AVENUE,Corangamite (S),TERANG,3264,VIC
144.9821,-37.8456,The Alfred,PUBLIC,55,COMMERCIAL,ROAD,Melbourne (C),MELBOURNE,3004,VIC
145.0151,-37.6526,The Northern Hospital,PUBLIC,185,COOPER,STREET,Whittlesea (C),EPPING,3076,VIC
144.9489,-37.794,"Royal Children's Hospital, The",PUBLIC,50,FLEMINGTON,ROAD,Melbourne (C),PARKVILLE,3052,VIC
144.9761,-37.8088,Royal Victorian Eye and Ear Hospital,PUBLIC,32,GISBORNE,STREET,Melbourne (C),EAST MELBOURNE,3002,VIC
144.9551722,-37.79915699,"Royal Women's Hospital, The",PUBLIC,20,FLEMINGTON,ROAD,Melbourne (C),PARKVILLE,3052,VIC
142.9766,-38.4865,Timboon and District Healthcare Service,PUBLIC,21,HOSPITAL,ROAD,Corangamite (S),TIMBOON,3268,VIC
144.8876,-37.7974,Tweddle Child and Family Health Service,PUBLIC,49-71,ADELAIDE,STREET,Maribyrnong (C),FOOTSCRAY,3011,VIC
147.9032,-36.1988,Upper Murray Health and Community Services (Corryong),PUBLIC,16-20,KIELL,STREET,Towong (S),CORRYONG,3707,VIC
145.2262,-37.8482,Wantirna Health,PUBLIC,251,MOUNTAIN,HIGHWAY,Knox (C),WANTIRNA,3152,VIC
144.6992,-37.8858,Mercy Public Hospitals Inc (Werribee),PUBLIC,300-310,PRINCES,HIGHWAY,Wyndham (C),WERRIBEE,3030,VIC
145.9275,-38.1728,West Gippsland Healthcare Group (Warragul),PUBLIC,41,LANDSBOROUGH,STREET,Baw Baw (S),WARRAGUL,3820,VIC
141.9844,-36.1409,West Wimmera Health Service (Jeparit),PUBLIC,2,CHARLES,STREET,Hindmarsh (S),JEPARIT,3423,VIC
141.246,-36.3815,West Wimmera Health Service (Kaniva),PUBLIC,1-7,ROACHE,STREET,West Wimmera (S),KANIVA,3419,VIC
141.6561,-36.3339,West Wimmera Health Service (Nhill),PUBLIC,51,NELSON,STREET,Hindmarsh (S),NHILL,3418,VIC
141.9951,-35.9041,West Wimmera Health Service (Rainbow),PUBLIC,2,SWINBOURNE,AVENUE,Hindmarsh (S),RAINBOW,3424,VIC
142.0301,-37.7373,Hamilton Base Hospital,PUBLIC,20,FOSTER,STREET,Southern Grampians (S),HAMILTON,3300,VIC
142.2825,-37.8772,Penshurst & District Memorial Hospital,PUBLIC,146,COBB,STREET,Southern Grampians (S),PENSHURST,3289,VIC
141.6925,-37.5998,Western District Health Service (Coleraine),PUBLIC,71,MCLEOD,STREET,Southern Grampians (S),COLERAINE,3315,VIC
144.8874,-37.7924,Western Hospital (Footscray),PUBLIC,160,GORDON,STREET,Maribyrnong (C),FOOTSCRAY,3011,VIC
144.8928,-37.8636,Williamstown Hospital,PUBLIC,76A,RAILWAY,CRESCENT,Hobsons Bay (C),WILLIAMSTOWN,3016,VIC
142.0242,-36.4497,Wimmera Base Hospital (Dimboola),PUBLIC,32,ANDERSON,STREET,Hindmarsh (S),DIMBOOLA,3414,VIC
142.2092,-36.7119,Wimmera Base Hospital (Horsham),PUBLIC,83,BAILLIE,STREET,Horsham (RC),HORSHAM,3400,VIC
146.8795,-36.1318,Albury Wodonga Health (Wodonga),PUBLIC,53-81,VERMONT,STREET,Wodonga (RC),WODONGA,3690,VIC
146.6781,-38.5571,Yarram and District Health Service,PUBLIC,85-91,COMMERCIAL,ROAD,Wellington (S),YARRAM,3971,VIC
146.0068327,-36.01119805,Yarrawonga Health,PUBLIC,33,PIPER,STREET,Moira (S),YARRAWONGA,3730,VIC
145.4313,-37.2139,Yea and District Memorial Hospital,PUBLIC,45,STATION,STREET,Murrindindi (S),YEA,3717,VIC
145.3514,-37.7566,Yarra Ranges Health,PUBLIC,25,MARKET,STREET,Yarra Ranges (S),LILYDALE,3140,VIC
145.1496,-38.1728,Golf Links Road Rehabilitation Centre,PUBLIC,125,GOLF LINKS,ROAD,Frankston (C),FRANKSTON,3199,VIC
145.0416,-38.2301,The Mornington Centre,PUBLIC,24,SEPARATION,STREET,Mornington Peninsula (S),MORNINGTON,3931,VIC
144.7327,-37.5772,Sunbury Day Hospital,PUBLIC,7,MACEDON,STREET,Hume (C),SUNBURY,3429,VIC
146.9397,-36.0785,Albury Wodonga Health (Albury),PUBLIC,201,BORELLA,ROAD,Albury (C),EAST ALBURY (NSW),2640,NSW
142.8577,-35.5005,Mallee Track Health & Community Service (Sea Lake),PUBLIC,33-43,MCCLELLAND,AVENUE,Buloke (S),SEA LAKE,3533,VIC
144.8871,-37.7911,Orygen Inpatient Unit,PUBLIC,10,MAVIS,STREET,Maribyrnong (C),FOOTSCRAY,3011,VIC
145.0185,-37.961,Women's Sandringham,PUBLIC,191-193,BLUFF,ROAD,Bayside (C),SANDRINGHAM,3191,VIC
144.8869764,-37.79162173,Ursula Frayne Centre,PUBLIC,160,GORDON,STREET,Maribyrnong (C),FOOTSCRAY,3011,VIC
144.9773802,-37.81187259,Eye and Ear on the Park,PUBLIC,2,ST ANDREWS,PLACE,Melbourne (C),EAST MELBOURNE,3002,VIC