Education_Sector,School_Name,School_Type,Address_Line_1,Address_Town,Address_Postcode,Full_Phone_No,longitude,latitude
Government,Alberton Primary School,Primary,21 Thomson Street,Alberton,3971,03 5183 2412,146.666601,-38.617713
Government,Allansford and District Primary School,Primary,Frank Street,Allansford,3277,03 5565 1382,142.590393,-38.386281
Government,Avoca Primary School,Primary,118 Barnett Street,Avoca,3467,03 5465 3176,143.475649,-37.084502
Government,Avenel Primary School,Primary,40 Anderson Street,Avenel,3664,03 5796 2264,145.234722,-36.901368
Government,Warrandyte Primary School,Primary,5-11 Forbes Street,Warrandyte,3113,03 9844 3537,145.21398,-37.742675
Government,Belmont Primary School,Primary,51 Mt Pleasant Road,Belmont,3216,03 5243 2972,144.342099,-38.170672
Government,Bacchus Marsh Primary School,Primary,56-62 Lerderderg Street,Bacchus Marsh,3340,03 5367 2745,144.4431207,-37.67302961
Government,Ballarat Primary School (Dana Street),Primary,401 Dana Street,Ballarat,3350,03 5332 1301,143.853936,-37.56401278
Government,Wodonga Primary School,Primary,Brockley Street,Wodonga,3690,02 6048 0300,146.88982,-36.129214
Government,Berwick Primary School,Primary,37 Fairholme Boulevard,Berwick,3806,03 9707 1026,145.353743,-38.044178
Government,Beaufort Primary School,Primary,2/37 Park Road,Beaufort,3373,03 5349 2490,143.3817175,-37.43852098
Government,Cheltenham Primary School,Primary,231 Charman Road,Cheltenham,3192,03 8585 3200,145.054635,-37.968608
Government,Cudgee Primary School,Primary,3 Hallowells Road,Cudgee,3265,03 5567 6346,142.650844,-38.347938
Government,Newport Lakes Primary School,Primary,Elizabeth Street,Newport,3015,03 9391 8942,144.878345,-37.838424
Government,Cavendish Primary School,Primary,8-10 Barker Street,Cavendish,3314,03 5574 2282,142.039893,-37.53087
Government,Colac Primary School,Primary,53-65 Murray Street East,Colac,3250,03 5231 2560,143.598336,-38.337224
Government,Castlemaine Primary School,Primary,Cnr Mostyn & Urquhart Street,Castlemaine,3450,03 5472 1452,144.222329,-37.066595
Government,Campbells Creek Primary School,Primary,Main Road,Campbells Creek,3451,03 5472 2180,144.204662,-37.092935
Government,Creswick Primary School,Primary,67 Napier Street,Creswick,3363,03 5345 2044,143.8915581,-37.42411355
Government,California Gully Primary School,Primary,4-14 Staley Street,California Gully,3556,03 5446 8393,144.249857,-36.733207
Government,St Andrews Primary School,Primary,Caledonia Street,St Andrews,3761,03 9710 1255,145.269827,-37.602316
Government,Warrnambool West Primary School,Primary,35 Hoddle Street,Warrnambool,3280,03 5561 3161,142.466796,-38.366338
Government,Dromana Primary School,Primary,Mcculloch Street,Dromana,3936,03 5987 2367,144.959653,-38.339644
Government,Doncaster Primary School,Primary,2 - 12 Council Street,Doncaster,3108,03 9848 1122,145.129673,-37.786804
Government,Echuca Primary School,Primary,413-431 High Street,Echuca,3564,03 5483 0700,144.747463,-36.128198
Government,Eltham Primary School,Primary,Dalton Street,Eltham,3095,03 9439 9374,145.1478042,-37.72498353
Government,Eaglehawk Primary School,Primary,Church St,Eaglehawk,3556,03 5446 3722,144.254602,-36.720628
Government,Elphinstone Primary School,Primary,26 Wright Street,Elphinstone,3448,03 5473 3285,144.3329025,-37.10500363
Government,Hallam Primary School,Primary,24 Harmer Road,Hallam,3803,03 9703 1536,145.258493,-38.001575
Government,Flemington Primary School,Primary,Mt Alexander Road,Flemington,3031,03 9376 7137,144.933597,-37.781393
Government,Footscray Primary School,Primary,Cnr Geelong Road & Barkly St,Footscray,3011,03 9687 1910,144.892669,-37.798383
Government,Gisborne Primary School,Primary,35 Fisher Street,Gisborne,3437,03 5428 2022,144.5884416,-37.4908591
Government,Sandringham Primary School,Primary,31 Bamfield Street,Sandringham,3191,03 9598 1488,145.009306,-37.947631
Government,Wandiligong Primary School,Primary,119 School Road,Wandiligong,3744,,146.982923,-36.768862
Government,Grovedale Primary School,Primary,143 Bailey Street,Grovedale,3216,03 5243 3902,144.347794,-38.197238
Government,Hawthorn West Primary School,Primary,Cnr Wood Street & Burwood Road,Hawthorn,3122,03 9818 2233,145.018377,-37.820112
Government,Heidelberg Primary School,Primary,Cape Street,Heidelberg,3084,03 9457 2259,145.067799,-37.754705
Government,Hamilton (Gray Street) Primary School,Primary,42 Gray Street,Hamilton,3300,03 5571 9295,142.021384,-37.744914
Government,Heathcote Primary School,Primary,31 Herriot Street,Heathcote,3523,03 5433 3090,144.706851,-36.924012
Government,Highton Primary School,Primary,218 Roslyn Road,Highton,3216,03 5243 1494,144.317085,-38.172156
Government,Huntly Primary School,Primary,101 Brunel Street,Huntly,3551,03 5448 8866,144.334396,-36.662544
Government,Bellbrae Primary School,Primary,50 School Road,Bellbrae,3228,03 5261 2660,144.2630037,-38.33364403
Government,Chiltern Primary School,Primary,91-101 Albert Road,Chiltern,3683,03 5726 1421,146.606601,-36.147066
Government,Kyneton Primary School,Primary,7-15 Baynton Street,Kyneton,3444,03 5422 1855,144.45133,-37.249009
Government,Romsey Primary School,Primary,2-56 Station Street,Romsey,3434,03 5429 5099,144.7453792,-37.35417523
Government,Shelford Primary School,Primary,1717 Shelford-Bannockburn Road,Shelford,3329,03 5281 3291,143.9821391,-38.0139946
Government,Lockwood South Primary School,Primary,710 Calder Alternative Highway,Lockwood South,3551,03 5435 3293,144.156966,-36.841657
Government,Marong Primary School,Primary,2 Leslie Street,Marong,3515,03 5435 2288,144.136339,-36.735549
Government,Mount Macedon Primary School,Primary,641 Mount Macedon Road,Mount Macedon,3441,03 5426 1446,144.5841275,-37.40479379
Government,Mount Clear Primary School,Primary,1206 Geelong Road,Mount Clear,3350,03 5330 1844,143.8681827,-37.60439201
Government,Melton Primary School,Primary,Unitt Street,Melton,3337,03 9743 5335,144.58647,-37.681081
Government,Fitzroy Primary School,Primary,319 George Street,Fitzroy,3065,03 9417 4222,144.981511,-37.799603
Government,Newstead Primary School,Primary,28 Lyons Street,Newstead,3462,03 5476 2226,144.06719,-37.105917
Government,Newlyn Primary School,Primary,2701 Midland Highway,Newlyn,3364,03 5345 7222,143.9844266,-37.41202483
Government,Burwood East Primary School,Primary,Cnr Blackburn And Highbury Rds,Burwood East,3151,03 9802 8618,145.152209,-37.859779
Government,New Gisborne Primary School,Primary,239 Station Road,New Gisborne,3438,03 5428 2232,144.596579,-37.46288785
Government,Beeac Primary School,Primary,35 Lang Street,Beeac,3251,03 5234 6463,143.644279,-38.193973
Government,Essendon Primary School,Primary,38 Raleigh Street,Essendon,3040,03 9370 7816,144.921042,-37.753095
Government,Coburg Primary School,Primary,92 Bell Street,Coburg,3058,03 9354 9332,144.968026,-37.741184
Government,Penshurst Primary School,Primary,87 Ritchie Street,Penshurst,3289,03 5576 5433,142.291326,-37.879184
Government,Myrniong Primary School,Primary,13 Muddy Lane,Myrniong,3341,03 5368 7232,144.3463198,-37.61971733
Government,Mernda Primary School,Primary,25 Everton Drive,Mernda,3754,03 9717 7900,145.0922429,-37.59459504
Government,Portland Primary School,Primary,45 Palmer Street,Portland,3305,03 5523 1911,141.599408,-38.347295
Government,Stawell Primary School,Primary,14-28 Barnes Street,Stawell,3380,03 5358 1255,142.773775,-37.056128
Government,Rutherglen Primary School,Primary,44 Murray Street,Rutherglen,3685,02 6032 9428,146.460614,-36.056209
Government,Riddells Creek Primary School,Primary,69-77 Main Road,Riddells Creek,3431,03 5428 7277,144.6797752,-37.46122119
Government,Rokewood Primary School,Primary,38 Aitchison Street,Rokewood,3330,03 5346 1394,143.7228146,-37.90365609
Government,Geelong East Primary School,Primary,184 Boundary Road,Geelong East,3219,03 5248 4885,144.382972,-38.175556
Government,Sale Primary School,Primary,Macalister Street,Sale,3850,03 5144 5545,147.073643,-38.108303
Government,Skipton Primary School,Primary,7 Montgomery Street,Skipton,3361,03 5340 2002,143.368161,-37.686858
Government,South Yarra Primary School,Primary,585-601 Punt Road,South Yarra,3141,03 9866 3424,144.985619,-37.841353
Government,Stratford Primary School,Primary,Cnr Wellsford & Hobson Streets,Stratford,3862,03 5145 6554,147.085386,-37.967251
Government,Taradale Primary School,Primary,98 High Street,Taradale,3447,03 5423 2247,144.351063,-37.141313
Government,Koroit And District Primary School,Primary,91 Commercial Road,Koroit,3282,03 5565 8332,142.368702,-38.292441
Government,Tylden Primary School,Primary,11 Clowes Street,Tylden,3444,03 5424 8244,144.4087844,-37.32496764
Government,Thomastown Primary School,Primary,6 Spring Street,Thomastown,3074,03 9465 2225,145.0117394,-37.68238797
Government,Wangaratta Primary School,Primary,19 Chisholm Street,Wangaratta,3677,03 5721 2658,146.329419,-36.355275
Government,Wahgunyah Primary School,Primary,Elizabeth Street,Wahgunyah,3687,02 6033 1265,146.397925,-36.013651
Government,Woodend Primary School,Primary,146 High Street,Woodend,3442,03 5427 2455,144.5329415,-37.35341833
Government,Woodford Primary School,Primary,8 Victoria Street,Woodford,3281,03 5562 7632,142.484504,-38.316807
Government,Werribee Primary School,Primary,2 Deutgam Street,Werribee,3030,03 9742 6659,144.65911,-37.906703
Government,Winters Flat Primary School,Primary,3 Roberts Avenue,Castlemaine,3450,03 5472 1522,144.207491,-37.070164
Government,Wooragee Primary School,Primary,1011 Beechworth-Wodonga Road,Wooragee,3747,03 5728 7255,146.730883,-36.29048
Government,Wallan Primary School,Primary,46-48 Queen Street,Wallan,3756,03 5783 1232,144.975036,-37.411465
Government,Woolsthorpe Primary School,Primary,12 Manifold Street,Woolsthorpe,3276,03 5569 2241,142.4317633,-38.18741399
Government,Yandoit Primary School,Primary,74 High Street,Yandoit,3461,03 5476 4286,144.0884407,-37.21400151
Government,Yarram Primary School,Primary,2-14 Wesley Street,Yarram,3971,03 5182 5688,146.675323,-38.558532
Government,Pleasant Street Primary School (Ballarat),Primary,101 Pleasant St North,Lake Wendouree,3350,03 5332 2598,143.8387223,-37.55705557
Government,Yea Primary School,Primary,23 Station Street,Yea,3717,03 5797 2724,145.428298,-37.212727
Government,Lancefield Primary School,Primary,80 High Street,Lancefield,3435,03 5429 2307,144.726424,-37.27495358
Government,Coimadai Primary School,Primary,86 Bennetts Lane,Coimadai,3340,03 5367 2907,144.478308,-37.6137926
Government,Birregurra Primary School,Primary,58 Beal Street,Birregurra,3242,03 5236 2222,143.78651,-38.340457
Government,Clayton North Primary School,Primary,1714 Dandenong Road,Clayton,3168,03 9544 1522,145.122753,-37.912036
Government,Milawa Primary School,Primary,133 Milawa-Bobinawarrah Road,Milawa,3678,03 5727 3243,146.432484,-36.444544
Government,Lockwood Primary School,Primary,190 Wiegards Road,Lockwood,3551,03 5435 3224,144.161558,-36.802579
Government,Bealiba Primary School,Primary,9 Grant Street,Bealiba,3475,03 5469 1256,143.551897,-36.789942
Government,Bairnsdale Primary School,Primary,330 - 370 Main Street,Bairnsdale,3875,03 5152 4395,147.6232285,-37.82742322
Government,Gordon Primary School,Primary,1 Dicker Street,Gordon,3345,03 5368 9223,144.105053,-37.58384869
Government,Hepburn Primary School,Primary,156 Main Road,Hepburn,3461,03 5348 2531,144.1327626,-37.30971525
Government,Lara Lake Primary School,Primary,89 Forest Road South,Lara Lake,3212,03 5282 1261,144.395642,-38.030405
Government,Rosedale Primary School,Primary,1-23 Cricket Street,Rosedale,3847,03 5199 2473,146.7739049,-38.15460171
Government,Bright P-12 College,Pri/Sec,46 Bakers Gully Road,Bright,3741,03 5755 1166,146.960928,-36.733105
Government,Rochester Primary School,Primary,2 George Street,Rochester,3561,03 5484 1072,144.6979959,-36.35459709
Government,Ararat Primary School,Primary,70 - 78 Moore Street,Ararat,3377,03 5352 1253,142.937307,-37.285942
Government,Jamieson Primary School,Primary,1 The Sideling,Jamieson,3723,03 5777 0535,146.139999,-37.301263
Government,Preston South Primary School,Primary,56B Hotham Street,Preston,3072,03 9484 1544,145.007447,-37.747867
Government,Omeo Primary School,Primary,167 Day Avenue,Omeo,3898,03 5159 1313,147.593082,-37.100217
Government,Harrietville Primary School,Primary,165 Great Alpine Road,Harrietville,3741,03 5759 2533,147.064936,-36.887713
Government,Mordialloc Beach Primary School,Primary,58 Barkly Street,Mordialloc,3195,03 9580 1468,145.088809,-38.005582
Government,Healesville Primary School,Primary,2 View Street,Healesville,3777,03 5962 4053,145.5160425,-37.65713287
Government,Lake Bolac College,Pri/Sec,90 Montgomery Street,Lake Bolac,3351,03 5350 2302,142.837903,-37.720241
Government,Toongabbie Primary School,Primary,Victoria Street,Toongabbie,3856,03 5192 4384,146.625183,-38.056967
Government,Waubra Primary School,Primary,2110 Sunraysia Highway,Waubra,3352,03 5343 5358,143.634455,-37.353836
Government,Great Western Primary School,Primary,Stephenson Street,Great Western,3374,03 5356 2235,142.85173,-37.148513
Government,Maffra Primary School,Primary,22-28 Church Street,Maffra,3860,03 5147 1236,146.97677,-37.964002
Government,Broken Creek Primary School,Primary,413 Quinn Road,Broken Creek,3673,03 5764 1253,145.889232,-36.423279
Government,Lal Lal Primary School,Primary,12 Vaughan Street,Lal Lal,3352,03 5341 7580,144.010707,-37.676724
Government,Cobden Primary School,Primary,Silvester Street,Cobden,3266,03 5595 1087,143.078121,-38.327119
Government,St Leonards Primary School,Primary,1341 Murradoc Road,St Leonards,3223,03 5257 1460,144.715034,-38.17196
Government,Lilydale Primary School,Primary,63 - 65 Castella Street,Lilydale,3140,03 9735 1642,145.3540681,-37.75367357
Government,Bendigo Primary School,Primary,Old Violet Street,Bendigo,3550,03 5443 6411,144.264982,-36.757329
Government,Darraweit Guim Primary School,Primary,2 Darraweit Valley Road,Darraweit Guim,3756,03 5789 1234,144.8935664,-37.4010281
Government,Linton Primary School,Primary,28 Adair Street,Linton,3360,03 5344 7341,143.5613088,-37.68406827
Government,Invermay Primary School,Primary,187 Swinglers Road,Invermay,3352,03 5332 6396,143.8743932,-37.52085014
Government,Mitta Mitta Primary School,Primary,27 Giltrap Road,Mitta Mitta,3701,02 6072 3570,147.379483,-36.533414
Government,Camberwell Primary School,Primary,290 Camberwell Road,Camberwell,3124,03 9882 4663,145.05795,-37.832656
Government,Greenvale Primary School,Primary,12-24 Bradford Avenue,Greenvale,3059,03 9333 2500,144.885933,-37.640312
Government,Alexandra Primary School,Primary,15 Webster Street,Alexandra,3714,03 5772 1006,145.711704,-37.192568
Government,Rockbank Primary School,Primary,97-105 Westcott Parade,Rockbank,3335,03 9747 1210,144.66214,-37.732023
Government,Bannockburn P-12 College,Pri/Sec,139 Milton Street,Bannockburn,3331,03 5281 1755,144.1700496,-38.04699559
Government,Doreen Primary School,Primary,75 Doctors Gully Road,Doreen,3754,03 9717 3563,145.146482,-37.606324
Government,Talbot Primary School,Primary,2 Rowe Street,Talbot,3371,03 5463 2373,143.703604,-37.16865
Government,Yarra Glen Primary School,Primary,35 Symonds Street,Yarra Glen,3775,03 9730 1254,145.3716153,-37.64909639
Government,Elmhurst Primary School,Primary,48 Byerly Street,Elmhurst,3469,03 5354 8252,143.250208,-37.178015
Government,Kangaroo Flat Primary School,Primary,60-80 Olympic Parade,Kangaroo Flat,3555,03 5447 5100,144.234463,-36.788258
Government,Westmeadows Primary School,Primary,34-46 Riddell Street,Westmeadows,3049,03 9309 4350,144.895697,-37.675649
Government,Sunbury Primary School,Primary,41 The Heights,Sunbury,3429,03 9744 9744,144.728144,-37.597687
Government,Diamond Creek Primary School,Primary,17 Clyde Street,Diamond Creek,3089,03 9438 1108,145.1516539,-37.67184929
Government,Hesket Primary School,Primary,800 Romsey Road,Hesket,3442,03 5427 0330,144.6197775,-37.34780909
Government,Axedale Primary School,Primary,81 High Street,Axedale,3551,03 5439 7232,144.50146,-36.786228
Government,Vermont Primary School,Primary,4-10 Nurlendi Road,Vermont,3133,03 9874 2511,145.194176,-37.837658
Government,Tarnagulla Primary School,Primary,51 Stanley Street,Tarnagulla,3551,03 5438 7355,143.828403,-36.771263
Government,Balwyn Primary School,Primary,86B Balwyn Road,Balwyn,3103,03 9836 7121,145.081524,-37.813944
Government,Scoresby Primary School,Primary,11 Ingrid Street,Scoresby,3179,03 9763 7484,145.227501,-37.89395
Government,Carisbrook Primary School,Primary,2 Camp Street,Carisbrook,3464,03 5464 2444,143.812657,-37.052061
Government,Wandin Yallock Primary School,Primary,105 Beenak Road,Wandin North,3139,03 5964 4276,145.4364086,-37.79035398
Government,Yering Primary School,Primary,22-24 Melba Highway,Yering,3770,03 9739 1451,145.3822185,-37.7053494
Government,Dartmoor Primary School,Primary,76 Greenham Street,Dartmoor,3304,03 5528 1382,141.276732,-37.923017
Government,Mickleham Primary School,Primary,1880 Mickleham Road,Mickleham,3064,03 9745 2250,144.877199,-37.563336
Government,Inglewood Primary School,Primary,77 Sullivan Street,Inglewood,3517,03 5438 3303,143.870446,-36.573945
Government,Chewton Primary School,Primary,1 Hunter Street,Chewton,3451,03 5472 2557,144.261164,-37.082327
Government,Bolinda Primary School,Primary,1 Mullalys Road,Bolinda,3432,03 5428 5317,144.7454039,-37.43373498
Government,Napoleons Primary School,Primary,4721 Colac-Ballarat Road,Napoleons,3352,03 5342 0414,143.826459,-37.67862938
Government,Kew Primary School,Primary,Peel Street,Kew,3101,03 9853 8325,145.033156,-37.80463
Government,Haddon Primary School,Primary,398 Sago Hill Road,Haddon,3351,03 4344 4139,143.7217144,-37.58863962
Government,Panmure Primary School,Primary,8759 Princes Highway,Panmure,3265,03 5567 6264,142.732528,-38.32935021
Government,Sorrento Primary School,Primary,32 Kerferd Avenue,Sorrento,3943,03 5984 2130,144.740919,-38.341789
Government,Alfredton Primary School,Primary,89a Cuthberts Road,Alfredton,3350,03 5334 1572,143.8017398,-37.55496802
Government,Bridgewater Primary School,Primary,34 - 44 Eldon Street,Bridgewater On Loddon,3516,03 5437 3081,143.945917,-36.603101
Government,Hastings Primary School,Primary,10 - 20 Hodgins Road,Hastings,3915,03 5979 1517,145.189121,-38.299463
Government,Yackandandah Primary School,Primary,39 High Street,Yackandandah,3749,02 6027 1431,146.836458,-36.312095
Government,Nagambie Primary School,Primary,31 Goulburn Street,Nagambie,3608,03 5794 2273,145.157226,-36.787589
Government,Heyfield Primary School,Primary,22 Temple Street,Heyfield,3858,03 5148 2666,146.784936,-37.982114
Government,Moorabbin Primary School,Primary,61 Worthing Road,Moorabbin,3189,03 9555 1101,145.039171,-37.942362
Government,Mansfield Primary School,Primary,4 Apollo Street,Mansfield,3722,03 5775 2325,146.084825,-37.055591
Government,Middle Indigo Primary School,Primary,710 Indigo Creek Road,Indigo Valley,3688,02 6026 9235,146.72484,-36.156013
Government,Briagolong Primary School,Primary,2 Church Street,Briagolong,3860,03 5145 5260,147.067843,-37.842801
Government,Lindenow Primary School,Primary,140 Henry Street,Lindenow,3865,03 5157 1340,147.453266,-37.800879
Government,Broadford Primary School,Primary,17-23 Powlett Street,Broadford,3658,03 5784 1221,145.046301,-37.20257
Government,Murchison Primary School,Primary,8-10 Impey Street,Murchison,3610,03 5826 2391,145.214287,-36.61718
Government,Panton Hill Primary School,Primary,585 Kangaroo Grd-St Andrews Rd,Panton Hill,3759,03 9719 7202,145.2395564,-37.64160566
Government,Glen Park Primary School,Primary,265 Ralstons Road,Glen Park,3352,03 5334 5360,143.934795,-37.524779
Government,Concongella Primary School,Primary,61 Concongella School Road,CONCONGELLA,3384,03 5358 1811,142.822316,-37.049558
Government,Bruthen Primary School,Primary,31 Great Alpine Road,Bruthen,3885,03 5157 5445,147.833492,-37.704214
Government,Swan Hill Primary School,Primary,123 Gray Street,Swan Hill,3585,03 5032 1336,143.54325,-35.346911
Government,Porepunkah Primary School,Primary,2 Martley Street,Porepunkah,3740,03 5756 2253,146.911022,-36.699486
Government,Leopold Primary School,Primary,1 Kensington Road,Leopold,3224,03 5250 1233,144.464536,-38.18689
Government,Inverleigh Primary School,Primary,54 High Street,Inverleigh,3321,03 5265 1340,144.0546877,-38.10094228
Government,Glen Iris Primary School,Primary,170 Glen Iris Road,Glen Iris,3146,03 9885 3624,145.065883,-37.860436
Government,Trawalla Primary School,Primary,11 Trawalla Road,Trawalla,3373,03 5349 2047,143.469859,-37.437731
Government,Quarry Hill Primary School,Primary,25 Peel Street,Quarry Hill,3550,03 5443 3537,144.280277,-36.77507
Government,Sebastopol Primary School,Primary,9 Warreen Street,Sebastopol,3356,03 5335 8157,143.844719,-37.59643401
Government,Woodside Primary School,Primary,41 Beach Road,Woodside,3874,03 5187 1272,146.87668,-38.526681
Government,Noorat Primary School,Primary,MacKinnon's Bridge Road,Noorat,3265,03 5592 5282,142.928735,-38.190751
Government,Albert Park Primary School,Primary,Bridport Street,Albert Park,3206,03 9699 9090,144.952395,-37.841787
Government,Williamstown Primary School,Primary,Cecil Street,Williamstown,3016,03 9397 1248,144.899736,-37.863809
Government,Boneo Primary School,Primary,582 Boneo Road,Boneo,3939,03 5988 6253,144.886977,-38.412073
Government,Queenscliff Primary School,Primary,Cnr Stokes & Stevens Street,Queenscliff,3225,03 5258 1696,144.656211,-38.267224
Government,Portland North Primary School,Primary,42 School Road,Portland North,3305,03 5523 1482,141.572331,-38.317639
Government,Timor Primary School,Primary,395 Bet Bet Creek Road,Timor,3465,03 5461 2595,143.711987,-36.984224
Government,Apsley Primary School,Primary,46 Laidlaw Street,Apsley,3319,03 5586 1231,141.082487,-36.973706
Government,Strathfieldsaye Primary School,Primary,9 Uxbridge Street,Strathfieldsaye,3551,03 5439 5207,144.352731,-36.804386
Government,Skye Primary School,Primary,395 Ballarto Road,Skye,3977,03 9786 1555,145.201245,-38.117707
Government,Tooborac Primary School,Primary,5185 Northern Highway,Tooborac,3522,03 5433 5225,144.798145,-37.039779
Government,Lucknow Primary School,Primary,35 Howitt Avenue,Eastwood,3875,03 5152 4662,147.630748,-37.812667
Government,Upper Plenty Primary School,Primary,10 Clarkes Road,Upper Plenty,3756,03 5783 1358,145.057874,-37.423711
Government,Carlton North Primary School,Primary,60 Lee Street,Carlton North,3054,03 9347 4822,144.973028,-37.791064
Government,Maldon Primary School,Primary,109 High Street,Maldon,3463,03 5475 1484,144.065814,-36.995039
Government,Woori Yallock Primary School,Primary,1360 Healesville Road,Woori Yallock,3139,03 5964 7258,145.5326881,-37.77737209
Government,Moyston Primary School,Primary,1349 Ararat-Halls Gap Road,Moyston,3377,03 5354 2537,142.76785,-37.301664
Government,Buninyong Primary School,Primary,202 Simpson Street,Buninyong,3357,03 5341 3560,143.8857746,-37.65410344
Government,Marysville Primary School,Primary,15 Falls Road,Marysville,3779,03 5963 3256,145.748939,-37.511982
Government,Langley Primary School,Primary,Crn Kyneton/Heathcote & Parsells Rd,Langley,3444,03 5423 4125,144.489657,-37.17118
Government,Wandong Primary School,Primary,Rail Street,Wandong,3758,03 5787 1232,145.027861,-37.360304
Government,Cowes Primary School,Primary,177 Settlement Road,Cowes,3922,03 5952 2132,145.241315,-38.456278
Government,Bullarto Primary School,Primary,131 Bullarto South Road,Bullarto,3461,03 5348 5559,144.218221,-37.405379
Government,Lismore Primary School,Primary,77 William Street,Lismore,3324,03 5596 2121,143.3392983,-37.95459656
Government,Lower Plenty Primary School,Primary,126-146 Main Road,Lower Plenty,3093,03 9435 2585,145.115498,-37.726172
Government,Specimen Hill Primary School,Primary,Inglewood Street,Golden Square,3555,03 5443 5353,144.248897,-36.762065
Government,Bolwarra Primary School,Primary,249 Princes Highway,Bolwarra,3305,03 5529 2374,141.613797,-38.281613
Government,Navarre Primary School,Primary,High Street,Navarre,3384,03 5357 4256,143.111337,-36.900737
Government,Warracknabeal Primary School,Primary,5 Werrigar Street,Warracknabeal,3393,03 5398 1194,142.391263,-36.257875
Government,Moyhu Primary School,Primary,2799 Wangaratta-Whitfield Road,Moyhu,3732,03 5727 9298,146.383087,-36.593173
Government,Natte Yallock Primary School,Primary,10 School Road,Natte Yallock,3465,03 5462 2386,143.468003,-36.942129
Government,Clifton Hill Primary School,Primary,185 Gold St,Clifton Hill,3068,03 9489 8333,144.989245,-37.792308
Government,Christmas Hills Primary School,Primary,1409 Eltham-yarra Glen Road,Christmas Hills,3775,03 9730 1238,145.3041635,-37.65393692
Government,Tallangatta Primary School,Primary,1 Wonga Grove,Tallangatta,3700,02 6071 2590,147.1741969,-36.21479715
Government,Kialla Central Primary School,Primary,128 Central Kialla Road,Kialla,3631,03 5827 1373,145.431154,-36.452703
Government,Mount Eliza Primary School,Primary,Wooralla Drive,Mount Eliza,3930,03 9787 1385,145.09203,-38.195467
Government,San Remo Primary School,Primary,22 Bergin Grove,San Remo,3925,03 5678 5354,145.369453,-38.523852
Government,Dimboola Primary School,Primary,Hindmarsh Street,Dimboola,3414,03 5389 1270,142.030403,-36.453364
Government,Whorouly Primary School,Primary,18 Church Street,Whorouly,3735,03 5727 1363,146.586653,-36.505442
Government,Merrijig Primary School,Primary,1820 Mount Buller Road,Merrijig,3723,03 5777 5559,146.25688,-37.102798
Government,Lethbridge Primary School,Primary,2 Stephenson Street,Lethbridge,3332,03 5281 7214,144.134564,-37.969062
Government,Oxley Primary School,Primary,1050 Wangaratta-Whitfield Road,Oxley,3678,03 5727 3312,146.360637,-36.441561
Government,Northcote Primary School,Primary,33 Helen Street,Northcote,3070,03 9481 0009,144.99688,-37.771758
Government,North Melbourne Primary School,Primary,210 Errol Street,North Melbourne,3051,03 9329 6902,144.950779,-37.798613
Government,Dandenong Primary School,Primary,174-182 Foster Street,Dandenong,3175,03 9792 2743,145.219821,-37.987917
Government,Malmsbury Primary School,Primary,28 Cameron Street,Malmsbury,3446,03 5423 2284,144.3869427,-37.187315
Government,Williamstown North Primary School,Primary,133 Melbourne Road,Williamstown,3016,03 9397 5722,144.891757,-37.855902
Government,Kerang Primary School,Primary,75 - 79 Victoria Street,Kerang,3579,03 5450 3181,143.921138,-35.731693
Government,Drouin West Primary School,Primary,535 Main Neerim Road,Drouin West,3818,03 5625 1971,145.871719,-38.087115
Government,Meredith Primary School,Primary,5 Wallace Street,Meredith,3333,03 5286 1313,144.0778091,-37.84271017
Government,Edi Upper Primary School,Primary,832 Edi-Cheshunt Road,Edi Upper,3678,03 5729 3560,146.448811,-36.706471
Government,Eaglehawk North Primary School,Primary,1-9 Bendigo-Pyramid Road,Eaglehawk,3556,03 5446 8366,144.237274,-36.706762
Government,Mooroopna Primary School,Primary,16-18 O'Brien Street,Mooroopna,3629,03 5825 2060,145.360292,-36.391363
Government,Cairnlea Park Primary School,Primary,49 Carmody Drive,Cairnlea,3023,03 9363 1187,144.787257,-37.757556
Government,Ballan Primary School,Primary,8-14 Duncan Street,Ballan,3342,03 5368 1072,144.2311016,-37.60168009
Government,Mount Pleasant Primary School,Primary,401 Cobden Street,Ballarat,3350,03 5332 3646,143.8581493,-37.5779428
Government,Tatura Primary School,Primary,28-40 Albert Street,Tatura,3616,03 5824 1684,145.229923,-36.444966
Government,Toolamba Primary School,Primary,69-77 Wren Street,Toolamba,3614,03 5826 5212,145.344182,-36.490521
Government,Harston Primary School,Primary,155 Harston Road,Tatura,3616,03 5854 8317,145.141754,-36.469859
Government,Osbornes Flat Primary School,Primary,354 Osbornes Flat Road,Osbornes Flat,3691,02 6027 1415,146.892571,-36.31716
Government,Frankston Primary School,Primary,Davey Street,Frankston,3199,03 9783 3769,145.1240309,-38.14755735
Government,Donald Primary School,Primary,Walker Street,Donald,3480,03 5497 1581,142.984628,-36.367208
Government,Beveridge Primary School,Primary,Arrowsmith Street,Beveridge,3753,03 9745 2264,144.977755,-37.472062
Government,St Kilda Primary School,Primary,2B Brighton Road,St Kilda,3182,03 9534 3993,144.989019,-37.870223
Government,Cape Clear Primary School,Primary,1539 Scarsdale-pitfield Road,Cape Clear,3351,03 5342 2252,143.6082053,-37.79195536
Government,Warburton Primary School,Primary,16 Horners Road,Warburton,3799,03 5966 2010,145.7017044,-37.75580451
Government,Tallarook Primary School,Primary,52 Main Road,Tallarook,3659,03 5792 1752,145.10067,-37.096764
Government,Barnawartha Primary School,Primary,11-17 Stanely Street,Barnawartha,3688,02 6026 7227,146.675889,-36.101309
Government,Fitzroy North Primary School,Primary,Fergie Street,Fitzroy North,3068,03 9481 5860,144.984149,-37.78502
Government,Ashby Primary School,Primary,2 Lawton Avenue,Geelong West,3218,03 5223 1291,144.347375,-38.138701
Government,Preston Primary School,Primary,240 Tyler Street,Preston,3072,03 9470 1167,145.01031,-37.730548
Government,Tooradin Primary School,Primary,Bayview Road,Tooradin,3980,03 5998 3321,145.378493,-38.207631
Government,Glenferrie Primary School,Primary,78 - 98 Manningtree Road,Hawthorn,3122,03 9818 4338,145.033857,-37.824042
Government,Elmore Primary School,Primary,36 Michie Street,Elmore,3558,03 5432 6247,144.608912,-36.497198
Government,Dookie Primary School,Primary,Baldock Street,Dookie,3646,03 5828 6585,145.682794,-36.331067
Government,Brighton Primary School,Primary,59 Wilson Street,Brighton,3186,03 9592 0177,145.002234,-37.911753
Government,Natimuk Primary School,Primary,38 Old Noradjuha Road,Natimuk,3409,03 5387 1367,141.950496,-36.741235
Government,Murtoa College,Pri/Sec,Webb Street,Murtoa,3390,03 5385 2381,142.475745,-36.623495
Government,Big Hill Primary School,Primary,5644 Calder Highway,Big Hill,3555,03 5447 7022,144.24247,-36.830583
Government,Clunes Primary School,Primary,Canterbury Street,Clunes,3370,03 5345 3182,143.7921149,-37.2907506
Government,Marnoo Primary School,Primary,Newall Street,Marnoo,3387,03 5359 2313,142.870353,-36.676853
Government,Beechworth Primary School,Primary,17 Junction Road,Beechworth,3747,03 5728 1066,146.693567,-36.355433
Government,Ardmona Primary School,Primary,580 Turnbull Road,Ardmona,3629,03 5829 0273,145.313066,-36.385458
Government,Kilmore Primary School,Primary,35 Lancefield Road,Kilmore,3764,03 5782 1268,144.947521,-37.295768
Government,Macarthur Primary School,Primary,23 Russell Street,Macarthur,3286,03 5576 1245,142.001473,-38.030878
Government,Barwon Heads Primary School,Primary,Golf Links Road,Barwon Heads,3227,03 5254 2324,144.487039,-38.281189
Government,Keilor Primary School,Primary,25 Kennedy Street,Keilor,3036,03 9336 7098,144.835704,-37.716896
Government,Dunolly Primary School,Primary,8 Elgin Street,Dunolly,3472,03 5468 1111,143.733581,-36.851552
Government,Springhurst Primary School,Primary,121 Anzac Road,Springhurst,3682,03 5726 5291,146.468103,-36.184673
Government,Dixons Creek Primary School,Primary,Melba Highway,Dixons Creek,3775,03 5965 2282,145.413517,-37.59234
Government,Trentham District Primary School,Primary,8 Bridge Street,Trentham,3458,03 5424 1364,144.3280953,-37.38796656
Government,Warrenheip Primary School,Primary,93 Warrenheip Road,Warrenheip,3352,03 5334 7294,143.9279491,-37.57391565
Government,Maiden Gully Primary School,Primary,10 Carolyn Way,Maiden Gully,3551,03 5449 6429,144.210192,-36.744472
Government,Rupanyup Primary School,Primary,22 Dyer Street,Rupanyup,3388,03 5385 5125,142.628612,-36.632224
Government,Goornong Primary School,Primary,26 Grant Street,Goornong,3557,03 5432 2236,144.505155,-36.616872
Government,Oakleigh Primary School,Primary,20 Warrigal Road,Oakleigh,3166,03 9568 0558,145.088615,-37.894474
Government,Ceres Primary School,Primary,605 Barrabool Road,Ceres,3221,03 5249 1382,144.266732,-38.173549
Government,Malvern Central School,Primary,Spring Road,Malvern,3144,03 8823 9500,145.034401,-37.856009
Government,Daylesford Primary School,Primary,102-128 Vincent Street,Daylesford,3460,03 5348 2480,144.1415552,-37.34510484
Government,Mooroopna North Primary School,Primary,835 Ardmona Road,Mooroopna,3629,03 5829 0141,145.298488,-36.329139
Government,Swan Reach Primary School,Primary,21 School Road,Swan Reach,3903,03 5156 4287,147.864786,-37.821077
Government,Amphitheatre Primary School,Primary,16 School Road,Amphitheatre,3468,03 5466 2223,143.399236,-37.184128
Government,Deans Marsh Primary School,Primary,30 Deans Marsh-Lorne Road,Deans Marsh,3235,03 5236 3264,143.8857511,-38.39987507
Government,Drysdale Primary School,Primary,52-66 Clifton Springs Rd,Drysdale,3222,03 5251 2272,144.571747,-38.169163
Government,St Arnaud Primary School,Primary,Charlton Road,St Arnaud,3478,03 5495 1028,143.257542,-36.6102
Government,Nullawarre and District Primary School,Primary,132 Henry's Sawmill Road,Nullawarre,3268,03 5566 5267,142.734429,-38.466755
Government,Macedon Primary School,Primary,67 Smith Street,Macedon,3440,03 5426 1518,144.5626788,-37.41869064
Government,Arthurs Creek Primary School,Primary,900 Arthurs Creek Road,Arthurs Creek,3099,03 9714 8204,145.2025016,-37.57900478
Government,Rye Primary School,Primary,Lyons St,Rye,3941,03 5985 2363,144.823824,-38.373116
Government,Buxton Primary School,Primary,2208 Maroondah Highway,Buxton,3711,03 5774 7341,145.709051,-37.421398
Government,Moonambel Primary School,Primary,24 Humffray Street,Moonambel,3478,03 5467 2223,143.320743,-36.989858
Government,Baringhup Primary School,Primary,Mitchell Street,Baringhup,3463,03 5475 2574,143.967824,-36.977004
Government,Longford Primary School,Primary,6380 South Gippsland Highway,Longford,3851,03 5149 7210,147.088411,-38.169564
Government,Harkaway Primary School,Primary,65-67 King Road,Harkaway,3806,03 9707 1475,145.345296,-38.001041
Government,Balnarring Primary School,Primary,1 Civic Court,Balnarring,3926,03 5931 4444,145.122985,-38.376257
Government,Carraragarmungee Primary School,Primary,1005 Wangaratta-Eldorado Road,Londrigan,3678,03 5725 1531,146.460861,-36.328898
Government,Euroa Primary School,Primary,Clifton Street,Euroa,3666,03 5795 2212,145.572076,-36.755962
Government,Pyramid Hill College,Pri/Sec,101 Kelly Street,Pyramid Hill,3575,03 5455 7377,144.113679,-36.04736
Government,Shepparton East Primary School,Primary,15 School Road,Shepparton East,3631,03 5829 2426,145.479249,-36.399933
Government,Nicholson Primary School,Primary,Princes Highway,Nicholson,3882,03 5156 8220,147.747912,-37.815776
Government,Kialla West Primary School,Primary,7370 Goulburn Valley Highway,Kialla West,3631,03 5823 1333,145.389455,-36.466006
Government,Miners Rest Primary School,Primary,Dundas Street,Miners Rest,3352,03 5334 6328,143.7952382,-37.47791092
Government,Glenrowan Primary School,Primary,40 Beaconsfield Parade,Glenrowan,3675,03 5766 2221,146.222337,-36.460189
Government,Warrnambool Primary School,Primary,Jamieson Street,Warrnambool,3280,03 5561 5955,142.482572,-38.377278
Government,Devenish Primary School,Primary,76 Main Road,Devenish,3726,03 5764 4343,145.894335,-36.32654
Government,Undera Primary School,Primary,45-55 Anderson Street,Undera,3629,03 5826 0211,145.21893,-36.276362
Government,Dederang Primary School,Primary,4364 Kiewa Valley Highway,Dederang,3691,02 6028 9331,147.015314,-36.469255
Government,Eppalock Primary School,Primary,149 Patons Road,Axe Creek,3551,03 5439 6366,144.387727,-36.841773
Government,Silvan Primary School,Primary,269 Monbulk Road,Silvan,3795,03 9737 9258,145.4224628,-37.82450788
Government,Wendouree Primary School,Primary,1224 Howitt Street,Wendouree,3355,03 5339 1229,143.8284199,-37.53921193
Government,Lancaster Primary School,Primary,8 Weller Road,Lancaster,3620,03 5855 2560,145.132822,-36.31325
Government,Raywood Primary School,Primary,18-22 Sandhurst Street,Raywood,3570,03 5436 1392,144.204946,-36.539577
Government,Drummond Primary School,Primary,9 Lauriston Road,Drummond,3461,03 5423 9152,144.3301844,-37.23569513
Government,Puckapunyal Primary School,Primary,Alamein Road,Puckapunyal,3662,03 5793 1288,145.033509,-37.00263
Government,Landsborough Primary School,Primary,82 McKinlay Street,Landsborough,3384,03 5356 9362,143.135913,-37.005861
Government,Lysterfield Primary School,Primary,Bellfield Drive,Lysterfield,3156,03 9752 7953,145.276229,-37.911598
Government,Winton Primary School,Primary,Fox Street,Winton,3673,03 5766 4233,146.081337,-36.51633
Government,Merrigum Primary School,Primary,Judd Avenue,Merrigum,3618,03 5855 2275,145.12966,-36.369324
Government,Bethanga Primary School,Primary,5 Beardmore Street,Bethanga,3691,02 6026 4263,147.09576,-36.120643
Government,Abbotsford Primary School,Primary,Lithgow Street,Abbotsford,3067,03 9428 5977,144.998814,-37.808979
Government,Newtown Primary School,Primary,Aberdeen Street,Newtown,3220,03 5229 9730,144.336604,-38.145663
Government,Windsor Primary School,Primary,Hornby Street,Windsor,3181,03 9521 3711,144.995631,-37.857148
Government,Narre Warren North Primary School,Primary,15-31 A'beckett Road,Narre Warren North,3804,03 9796 8261,145.316923,-37.978585
Government,Buchan Primary School,Primary,4 Dalley Street,Buchan,3885,03 5155 9241,148.180816,-37.497737
Government,Anakie Primary School,Primary,2125-2135 Ballan Road,Anakie,3213,03 5284 1291,144.255106,-37.912666
Government,Moolap Primary School,Primary,30 Wills Cres,Moolap,3221,03 5248 2284,144.424333,-38.170652
Government,Footscray City Primary School,Primary,10 Hyde Street,Footscray,3011,03 9687 2826,144.900253,-37.8064
Government,Newham Primary School,Primary,1271 Rochford Road,Newham,3442,03 5427 0235,144.5947612,-37.31214501
Government,Plenty Parklands Primary School,Primary,48 Blossom Park Drive,Mill Park,3082,03 9404 4311,145.0769441,-37.6697252
Government,White Hills Primary School,Primary,16 Plumridge Street,White Hills,3550,03 5443 0799,144.304152,-36.727939
Government,Mount Egerton Primary School,Primary,58 Church Street,Mount Egerton,3352,03 5368 9357,144.1021691,-37.6285209
Government,Drouin Primary School,Primary,153-161 Princes Way,Drouin,3818,03 5625 1666,145.853844,-38.132857
Government,Wunghnu Primary School,Primary,Brunton Street,Wunghnu,3635,03 5862 1701,145.4306,-36.150659
Government,Maroona Primary School,Primary,7431 Mortlake-ararat Road,Maroona,3377,03 5354 7622,142.858473,-37.432795
Government,Jindivick Primary School,Primary,1080 Jacksons Track,Jindivick,3818,03 5628 5293,145.901132,-38.027622
Government,Talgarno Primary School,Primary,14 Talgarno School Lane,Talgarno,3691,02 6020 1143,147.159146,-36.065797
Government,Bungaree Primary School,Primary,348 Bungaree-wallace Road,Bungaree,3352,03 5334 0253,144.0070955,-37.55759492
Government,Little River Primary School,Primary,21 Flinders Street,Little River,3211,03 5283 1214,144.50037,-37.965013
Government,Cowwarr Primary School,Primary,Church Street,Cowwarr,3857,03 5148 9271,146.698964,-38.013698
Government,Morang South Primary School,Primary,77 Gorge Road,South Morang,3752,03 9404 1548,145.0946659,-37.65286941
Government,Camp Hill Primary School,Primary,50 Gaol Rd,Bendigo,3550,03 5443 3367,144.278248,-36.755761
Government,Pyalong Primary School,Primary,10-14 Bourke Street,Pyalong,3521,03 5785 1291,144.857094,-37.117236
Government,Winchelsea Primary School,Primary,60 Main Street,Winchelsea,3241,03 5267 2134,143.9842796,-38.24449281
Government,Buln Buln Primary School,Primary,15 Old Sale Road,Buln Buln,3821,03 5626 8330,145.938174,-38.099354
Government,Macarthur Street Primary School,Primary,401 Macarthur Street,Soldiers Hill,3350,03 5332 4746,143.857486,-37.55114678
Government,Elliminyt Primary School,Primary,135 Slater Street,Elliminyt,3249,03 5231 5208,143.583697,-38.361351
Government,Mornington Primary School,Primary,Vale Street,Mornington,3931,03 5976 5500,145.042867,-38.221789
Government,Hamilton North Primary School,Primary,34 - 50 Andrews Street,Hamilton,3300,03 5571 2433,141.995148,-37.726456
Government,Mount Blowhard Primary School,Primary,527 Millers Road,Blowhard,3352,03 5334 6354,143.7864444,-37.42924282
Government,Creswick North Primary School,Primary,93 Macs Street,Creswick,3363,03 5345 2012,143.8908198,-37.40883711
Government,Black Hill Primary School,Primary,601 Chisholm Street,Ballarat,3350,03 5332 4544,143.869785,-37.549844
Government,Brighton Beach Primary School,Primary,19 Windermere Crescent,Brighton,3186,03 9591 0888,144.996107,-37.922105
Government,Castlemaine North Primary School,Primary,270 Barker Street,Castlemaine,3450,03 5472 1391,144.218993,-37.057835
Government,Yarrambat Primary School,Primary,552 Yan Yean Road,Yarrambat,3091,03 9436 1464,145.132562,-37.6409513
Government,Thoona Primary School,Primary,15 Johnston Street,Thoona,3726,03 5765 2233,146.077004,-36.338932
Government,Casterton Primary School,Primary,14 - 24 Mc Pherson Street,Casterton,3311,03 5581 1522,141.405196,-37.586549
Government,Nathalia Primary School,Primary,5 Bromley Street,Nathalia,3638,03 5866 2677,145.205888,-36.057524
Government,Chilwell Primary School,Primary,313a Pakington Street,Newtown,3220,03 5221 2738,144.345381,-38.155114
Government,Greensborough Primary School,Primary,130 Grimshaw Street,Greensborough,3088,03 9435 1496,145.099391,-37.703911
Government,Teesdale Primary School,Primary,Main Road,Teesdale,3328,03 5281 5218,144.0545907,-38.02923075
Government,Cranbourne Primary School,Primary,Bakewell Street,Cranbourne,3977,03 5996 1744,145.289018,-38.111648
Government,Katamatite Primary School,Primary,4 - 6 Currajong Avenue,Katamatite,3649,03 5865 1242,145.685297,-36.077354
Government,Buangor Primary School,Primary,26 School Road,Buangor,3375,03 5354 5513,143.175019,-37.364043
Government,Leitchville Primary School,Primary,2-4 Hawken Street,Leitchville,3567,03 5456 7438,144.302091,-35.909548
Government,Whittlesea Primary School,Primary,2425-2435 Plenty Road,Whittlesea,3757,03 9716 2140,145.1140469,-37.51426809
Government,Little Bendigo Primary School,Primary,8 Monte Street,Nerrina,3350,03 5332 6317,143.8950582,-37.54290101
Government,Urquhart Park Primary School,Primary,49 Inkerman Street,Ballarat,3350,03 5330 5400,143.8312189,-37.56601777
Government,Warragul Primary School,Primary,44 Bowen Street,Warragul,3820,03 5623 2460,145.928145,-38.156345
Government,Kangaroo Ground Primary School,Primary,Cr Graham&Eltham-Yarra Glen Rd,Kangaroo Ground,3097,03 9712 0292,145.215321,-37.691679
Government,Traralgon South Primary School,Primary,13 - 19 Keith Morgan Drive,Traralgon South,3844,03 5195 5244,146.540146,-38.297258
Government,Coleraine Primary School,Primary,124 Church Street,Coleraine,3315,03 5575 2057,141.684038,-37.601842
Government,Lake Charm Primary School,Primary,1939 Murray Valley Highway,Lake Charm,3581,03 5457 9244,143.800225,-35.606642
Government,Ripplebrook Primary School,Primary,2260 Westernport Road,Ripplebrook,3818,03 5627 6278,145.758488,-38.203495
Government,Numurkah Primary School,Primary,12 Quinn Street,Numurkah,3636,03 5862 1426,145.444996,-36.09024
Government,Moe (Albert Street) Primary School,Primary,40 Albert Street,Moe,3825,03 5127 1966,146.264349,-38.174709
Government,Geelong South Primary School,Primary,200 Yarra Street,South Geelong,3220,03 5221 4047,144.358566,-38.156945
Government,Bayswater Primary School,Primary,Birch Street,Bayswater,3153,03 9721 3755,145.259358,-37.843305
Government,Minyip Primary School,Primary,21 Main Street,Minyip,3392,03 5385 7485,142.584105,-36.462714
Government,Mulgrave Primary School,Primary,Gladeswood Drive,Mulgrave,3170,03 9795 2477,145.197367,-37.932946
Government,Yarragon Primary School,Primary,65 Loch Street,Yarragon,3823,03 5634 2375,146.0609594,-38.20937414
Government,Tyers Primary School,Primary,Main Road,Tyers,3844,03 5191 8260,146.477545,-38.149113
Government,Trafalgar Primary School,Primary,School Road,Trafalgar,3824,03 5633 1566,146.15987,-38.214764
Government,Kinglake Primary School,Primary,20 Mcmahons Rd,Kinglake,3763,03 5786 1284,145.356638,-37.521567
Government,Ellinbank Primary School,Primary,13 Community Place,Ellinbank,3821,03 5626 1338,145.935631,-38.240233
Government,Tambo Upper Primary School,Primary,890 Tambo Upper Road,Tambo Upper,3885,03 5156 4327,147.845203,-37.766199
Government,Baranduda Primary School,Primary,7 Verbena Street,Baranduda,3691,02 6020 8531,146.948115,-36.180533
Government,Tungamah Primary School,Primary,15 -17 Tower Street,Tungamah,3728,03 5748 5627,145.879472,-36.161306
Government,Bunyip Primary School,Primary,1290 Nar Nar Goon - Longwarry Road,Bunyip,3815,03 5629 5462,145.7129321,-38.09892269
Government,Gunbower Primary School,Primary,School Road,Gunbower,3566,03 5487 1323,144.372318,-35.954628
Government,Nar Nar Goon Primary School,Primary,27 Spencer Street,Nar Nar Goon,3812,03 5942 5311,145.573432,-38.08269
Government,Toora Primary School,Primary,5 Harriet Street,Toora,3962,03 5686 2283,146.328426,-38.664586
Government,Montrose Primary School,Primary,Leith Road,Montrose,3765,03 9728 2203,145.344142,-37.808793
Government,Koondrook Primary School,Primary,9 Punt Road,Koondrook,3580,03 5453 2428,144.129868,-35.634872
Government,Katunga South Primary School,Primary,245 Hays Road,Katunga,3640,03 5864 6212,145.458941,-36.018383
Government,Magpie Primary School,Primary,61 Docwra Street,Magpie,3352,03 5335 8851,143.8429664,-37.61578392
Government,Tawonga Primary School,Primary,Kiewa Valley Highway,Tawonga,3697,03 5754 4468,147.143253,-36.691398
Government,Narracan Primary School,Primary,32 School Road,Narracan,3824,03 5634 8215,146.231626,-38.261575
Government,Drouin South Primary School,Primary,3061 Westernport Road,Drouin South,3818,03 5627 6286,145.826818,-38.170566
Government,Eskdale Primary School,Primary,3790 Omeo Highway,Eskdale,3701,0409 801 510,147.251247,-36.465266
Government,Darnum Primary School,Primary,6 Graham Street,Darnum,3822,03 5627 8273,145.999698,-38.187727
Government,Moorooduc Primary School,Primary,Cnr Derril Rd & Mornington Tyabb Rd,Moorooduc,3933,03 5978 8330,145.105166,-38.248085
Government,The Basin Primary School,Primary,Cnr Liverpool Road & Mountain Highway,The Basin,3154,03 9762 1143,145.308425,-37.84951
Government,Paynesville Primary School,Primary,31 - 47 Ashley Street,Paynesville,3880,03 5156 6334,147.714701,-37.91128
Government,Epsom Primary School,Primary,Howard Street,Epsom,3551,03 5448 4318,144.312938,-36.705077
Government,Kensington Primary School,Primary,Mccracken Street,Kensington,3031,03 9376 6013,144.927578,-37.792704
Government,Hazelwood North Primary School,Primary,121 Church Road,Hazelwood North,3840,03 5166 1267,146.44768,-38.26819
Government,Mirboo North Primary School,Primary,Balook Street,Mirboo North,3871,03 5668 1375,146.151092,-38.400492
Government,Yinnar Primary School,Primary,30 Main Street,Yinnar,3869,03 5163 1362,146.328907,-38.321087
Government,Neerim South Primary School,Primary,180 Main Neerim Road,Neerim South,3831,03 5628 1254,145.955358,-38.01531
Government,Ivanhoe Primary School,Primary,122 Waterdale Road,Ivanhoe,3079,03 9499 1880,145.04298,-37.766573
Government,Portarlington Primary School,Primary,100 Newcombe Street,Portarlington,3223,03 5259 2572,144.656026,-38.115603
Government,Menzies Creek Primary School,Primary,12 School Road,Menzies Creek,3159,03 9754 3695,145.394566,-37.91774273
Government,St Kilda Park Primary School,Primary,68 Fitzroy Street,St Kilda,3182,03 8598 6444,144.978016,-37.858154
Government,Labertouche Primary School,Primary,35 School Road,Labertouche,3816,03 5628 7503,145.804945,-38.037672
Government,Diggers Rest Primary School,Primary,Plumpton Road,Diggers Rest,3427,03 9740 1391,144.709232,-37.622632
Government,Longwarry Primary School,Primary,5 McCrae Street,Longwarry,3816,03 5629 9376,145.769135,-38.1141
Government,Gembrook Primary School,Primary,50 Main Street,Gembrook,3783,03 5968 1313,145.5452418,-37.95159773
Government,Wurruk Primary School,Primary,15 -19 Fisk Street,Wurruk,3850,03 5144 2975,147.039947,-38.106803
Government,Willow Grove Primary School,Primary,39-45 Moe-Willow Grove Road,Willow Grove,3825,03 5635 2271,146.17734,-38.071392
Government,Hoddles Creek Primary School,Primary,700 Gembrook-Launching Place Road,Hoddles Creek,3139,03 5967 4282,145.5977536,-37.83173912
Government,Beaconsfield Upper Primary School,Primary,40 Stoney Creek Road,BEACONSFIELD UPPER,3808,03 5944 3591,145.4151448,-37.99569446
Government,Congupna Primary School,Primary,3580 Katamatite Road,Congupna,3633,03 5829 9286,145.434275,-36.299866
Government,Redesdale Mia Mia Primary School,Primary,31 School Road,Redesdale,3444,03 5425 3155,144.530885,-37.019525
Government,Malvern Primary School,Primary,17 Tooronga Road,Malvern East,3145,03 9571 6281,145.038458,-37.871592
Government,Launching Place Primary School,Primary,Carter Street,Launching Place,3139,03 5964 7783,145.5707669,-37.78250174
Government,Carlton Gardens Primary School,Primary,215 Rathdowne Street,Carlton,3053,03 9663 6502,144.969512,-37.802047
Government,Ascot Vale Primary School,Primary,Bank Street,Ascot Vale,3032,03 9370 6507,144.926119,-37.774322
Government,Boolarra Primary School,Primary,Tarwin Street,Boolarra,3870,03 5169 6471,146.268869,-38.382873
Government,Rosebud Primary School,Primary,Point Nepean Road,Rosebud,3939,03 5986 8274,144.908971,-38.355136
Government,Koo Wee Rup Primary School,Primary,Moody Street,Koo Wee Rup,3981,03 5997 1272,145.4926716,-38.19490111
Government,Armadale Primary School,Primary,9-23 Densham Road,Armadale,3143,03 9822 7003,145.017773,-37.852186
Government,Osborne Primary School,Primary,120 Craigie Rd,Mount Martha,3934,03 5975 1792,145.039951,-38.256989
Government,Somerville Primary School,Primary,37 Eramosa Road East,Somerville,3912,03 5977 5421,145.179139,-38.224016
Government,Willaura Primary School,Primary,14 Warranooke Street,Willaura,3379,03 5354 1401,142.739458,-37.54469
Government,Echuca East Primary School,Primary,21-31 Eyre Street,Echuca,3564,03 5482 2588,144.761108,-36.134052
Government,Lakes Entrance Primary School,Primary,49 Myer Street,Lakes Entrance,3909,03 5155 1812,147.994237,-37.875976
Government,Myrrhee Primary School,Primary,1673 Benalla-whitfield Road,Myrrhee,3732,03 5729 7524,146.318249,-36.738189
Government,Devon North Primary School,Primary,3 Devon North Connection Road,Devon North,3971,03 5182 5214,146.647777,-38.518949
Government,Longwood Primary School,Primary,1-21 Hurley Street,Longwood,3665,03 5798 5386,145.422063,-36.807932
Government,Forrest Primary School,Primary,10 Grant Street,Forrest,3236,03 5236 6393,143.714415,-38.516287
Government,Fairfield Primary School,Primary,Langridge Street,Fairfield,3078,03 9489 2966,145.020401,-37.777993
Government,Nilma Primary School,Primary,76 Bloomfield Road,Nilma,3821,03 5623 2963,145.974293,-38.165737
Government,Garfield Primary School,Primary,84 Railway Avenue,Garfield,3814,03 5629 2274,145.6740808,-38.0902567
Government,Yinnar South Primary School,Primary,Brewsters Road,Yinnar South,3869,03 5169 1540,146.3648129,-38.36891222
Government,Officer Primary School,Primary,13-23 Tivendale Rd,Officer,3809,03 5943 2315,145.4101917,-38.05832124
Government,Brunswick South Primary School,Primary,56 Brunswick Road,Brunswick East,3057,03 9380 1231,144.972408,-37.778667
Government,Orbost Primary School,Primary,10 Ruskin Street,Orbost,3888,03 5154 1119,148.457717,-37.707908
Government,Inverloch Primary School,Primary,Bayview Avenue,Inverloch,3996,03 5674 1253,145.728617,-38.631199
Government,Surrey Hills Primary School,Primary,2 Beatrice Avenue,Surrey Hills,3127,03 9890 1560,145.100903,-37.825534
Government,Montague Continuing Education Centre,Special,100 Montague Street,South Melbourne,3205,03 9690 3535,144.949738,-37.830602
Government,Strathmerton Primary School,Primary,Findlay Street,Strathmerton,3641,03 5874 5295,145.478843,-35.92402
Government,Laharum Primary School,Primary,1574 Northern Grampians Road,Laharum,3401,03 5383 6202,142.323314,-36.945346
Government,Walwa Primary School,Primary,Murray River Road,Walwa,3709,02 6037 1380,147.732148,-35.964228
Government,Middle Park Primary School,Primary,194 Richardson Street,Middle Park,3206,03 9690 1336,144.957512,-37.847803
Government,Seville Primary School,Primary,639 Warburton Highway,Seville,3139,03 5964 4557,145.4644066,-37.77389139
Government,Yarraville West Primary School,Primary,30 Powell Street,Yarraville,3013,03 9314 3816,144.885386,-37.814751
Government,Moreland Primary School,Primary,157-163 Moreland Road,Coburg,3058,03 9386 2510,144.966478,-37.755046
Government,Tanjil South Primary School,Primary,253 Moe-Willow Grove Road,Tanjil South,3825,03 5160 1255,146.252395,-38.118867
Government,Pomonal Primary School,Primary,2859 Ararat Pomonal Road,Pomonal,3381,03 5356 6292,142.608733,-37.193443
Government,Elsternwick Primary School,Primary,Murphy Street,Brighton,3186,03 8534 6100,144.997293,-37.891416
Government,Glengarry Primary School,Primary,Cairnbrook Road,Glengarry,3854,03 5192 4292,146.571338,-38.127576
Government,Carnegie Primary School,Primary,51 Truganini Road,Carnegie,3163,03 9571 2662,145.054855,-37.890848
Government,Lang Lang Primary School,Primary,52 Westernport Road,Lang Lang,3984,03 5997 5322,145.569879,-38.263013
Government,Croydon Primary School,Primary,Cnr Kent Avenue & Croydon Road,Croydon,3136,03 9723 2472,145.281321,-37.793171
Government,Moonee Ponds West Primary School,Primary,150 Athol Street,Moonee Ponds,3039,03 9370 6875,144.909568,-37.768284
Government,Mitcham Primary School,Primary,294 Mitcham Road,Mitcham,3132,03 9873 1551,145.192524,-37.808462
Government,Loch Primary School,Primary,2 Victoria Road,Loch,3945,03 5659 4254,145.70295,-38.368623
Government,Mildura Primary School,Primary,175-189 San Mateo Avenue,Mildura,3500,03 5023 1851,142.160493,-34.194287
Government,Blackburn Primary School,Primary,185 Surrey Road,Blackburn,3130,03 9878 1483,145.157671,-37.817543
Government,Newmerella Primary School,Primary,2-4 McLaughlins Road,Newmerella,3886,03 5154 1620,148.433995,-37.735473
Government,Port Melbourne Primary School,Primary,415 Graham Street,Port Melbourne,3207,03 9646 1001,144.933812,-37.835322
Government,Auburn Primary School,Primary,51 Rathmines Road,Hawthorn East,3123,03 9882 7035,145.050554,-37.820256
Government,Mentone Primary School,Primary,6 Childers Street,Mentone,3194,03 9583 2995,145.067971,-37.982948
Government,Princes Hill Primary School,Primary,280 Pigdon Street,Carlton North,3054,03 9389 5300,144.9681013,-37.78039994
Government,Gruyere Primary School,Primary,99 Killara Road,Gruyere,3770,03 5964 9260,145.4503894,-37.73408606
Government,Research Primary School,Primary,1570 Main Road,Research,3095,03 9437 1917,145.1835697,-37.70291933
Government,Pearcedale Primary School,Primary,Baxter-tooradin Road,Pearcedale,3912,03 5978 6250,145.231975,-38.203012
Government,Lindenow South Primary School,Primary,607 Lindenow-Glenaladale Road,Lindenow South,3875,03 5157 1397,147.433901,-37.826941
Government,Thorpdale Primary School,Primary,19 Robinson Street,Thorpdale,3835,03 5634 6325,146.178792,-38.288457
Government,St Albans Primary School,Primary,39 West Esplanade,St Albans,3021,03 9366 2832,144.795769,-37.738748
Government,Leongatha Primary School,Primary,Nerrena Road,Leongatha,3953,03 5667 4600,145.9589823,-38.47892754
Government,Jeparit Primary School,Primary,Sands Avenue,Jeparit,3423,03 5397 2033,141.984051,-36.141338
Government,Toorak Primary School,Primary,Canterbury Road,Toorak,3142,03 9827 2959,145.009909,-37.845076
Government,Baxter Primary School,Primary,Grant Road,Baxter,3911,03 5971 1391,145.181425,-38.199333
Government,Fish Creek and District Primary School,Primary,10 Foster Road,Fish Creek,3959,03 5683 2271,146.084419,-38.694749
Government,Beaconsfield Primary School,Primary,71-77 Old Princes Highway,Beaconsfield,3807,03 9707 1510,145.3716379,-38.04862904
Government,Metung Primary School,Primary,Stirling Road,Metung,3904,03 5156 2259,147.852464,-37.882955
Government,Newhaven Primary School,Primary,12-22 School Avenue,Newhaven,3925,03 5956 7326,145.356858,-38.513155
Government,Halls Gap Primary School,Primary,10-14 School Road,Halls Gap,3381,03 5356 4235,142.51743,-37.137482
Government,Tallygaroopna Primary School,Primary,24-34 Victoria Street,Tallygaroopna,3634,03 5829 8264,145.436316,-36.238614
Government,Ormond Primary School,Primary,Cnr Murray & Wheatley Roads,Ormond,3204,03 9578 1327,145.033669,-37.907001
Government,Korumburra Primary School,Primary,6 - 16 Mine Road,Korumburra,3950,03 5655 1309,145.825636,-38.435133
Government,Crib Point Primary School,Primary,70 Milne Street,Crib Point,3919,03 5983 9282,145.200539,-38.360484
Government,Pascoe Vale Primary School,Primary,362 Gaffney Street,Pascoe Vale,3044,03 9354 1611,144.93763,-37.731221
Government,Flowerdale Primary School,Primary,3377 Whittlesea Yea Road,Flowerdale,3717,03 5780 1264,145.291361,-37.316923
Government,Ocean Grove Primary School,Primary,1 - 23 Draper Street,Ocean Grove,3226,03 5255 1340,144.521852,-38.263993
Government,Beulah Primary School,Primary,Henty Highway,Beulah,3395,03 5390 2332,142.418256,-35.944942
Government,Merri Creek Primary School,Primary,Miller Street,Fitzroy North,3068,03 9481 0177,144.987386,-37.776966
Government,Sunshine Primary School,Primary,Cnr Hampshire & Derby Roads,Sunshine,3020,03 8311 5700,144.831101,-37.790881
Government,Tyabb Primary School,Primary,186 Mornington-Tyabb Road,Tyabb,3913,03 5977 4584,145.166617,-38.260794
Government,Wales Street Primary School,Primary,Wales Street,Thornbury,3071,03 9484 3949,145.008833,-37.76151
Government,Upper Sandy Creek Primary School,Primary,1037 Sandy Creek Road,Sandy Creek,3695,02 6071 8526,147.112896,-36.355178
Government,Spensley Street Primary School,Primary,193 Spensley Street,Clifton Hill,3068,03 9481 4666,145.003879,-37.786794
Government,Kew East Primary School,Primary,35 Kitchener Street,Kew East,3102,03 9859 2903,145.049151,-37.796473
Government,Nichols Point Primary School,Primary,110 Koorlong Avenue,Nichols Point,3501,03 5023 1633,142.204635,-34.2088
Government,Irymple Primary School,Primary,2032 15th Street,Irymple,3498,03 5024 5334,142.15908,-34.226605
Government,Brunswick East Primary School,Primary,195a Stewart Street,Brunswick East,3057,03 9387 3361,144.979403,-37.765104
Government,Eagle Point Primary School,Primary,43 School Road,Eagle Point,3878,03 5156 6382,147.680216,-37.892449
Government,Yarra Junction Primary School,Primary,2370 Warburton Highway,Yarra Junction,3797,03 5967 1544,145.6060798,-37.779029
Government,Sassafras Primary School,Primary,399 Mt Dandenong Tourist Road,Sassafras,3787,03 9755 1203,145.3552887,-37.86083457
Government,Ferny Creek Primary School,Primary,School Road,Ferny Creek,3786,03 9755 1522,145.3347256,-37.8842124
Government,Toolangi Primary School,Primary,Main Road,Toolangi,3777,03 5962 9255,145.472501,-37.535374
Government,Wonga Park Primary School,Primary,Dudley Road,Wonga Park,3115,03 9722 1325,145.273999,-37.730641
Government,Kinglake West Primary School,Primary,1041-1061 Whittlesea-Kinglake Rd,Kinglake West,3757,03 5786 5262,145.259597,-37.481303
Government,Perseverance Primary School,Primary,Centreway,French Island,3921,03 5980 1292,145.3334052,-38.38337735
Government,Monbulk Primary School,Primary,1 Main Road,Monbulk,3793,03 9756 6481,145.4102612,-37.87685153
Government,Lake Boga Primary School,Primary,8 Williams Street,Lake Boga,3584,03 5036 9000,143.63207,-35.464511
Government,Chum Creek Primary School,Primary,705 Chum Creek Road,Chum Creek,3777,03 5962 5391,145.4892499,-37.60595782
Government,Mount Dandenong Primary School,Primary,Farndons Road,Mount Dandenong,3767,03 9751 1136,145.362166,-37.83074276
Government,Nullawil Primary School,Primary,Church Street,Nullawil,3529,03 5493 5260,143.179119,-35.852732
Government,Badger Creek Primary School,Primary,Badger Creek Rd,Healesville,3777,03 5962 4019,145.5327681,-37.68005402
Government,Middle Kinglake Primary School,Primary,1 Extons Road,Kinglake Central,3757,03 5786 1295,145.315679,-37.505206
Government,Point Lonsdale Primary School,Primary,22 Bowen Road,Point Lonsdale,3225,03 5258 1501,144.621455,-38.274154
Government,Kongwak Primary School,Primary,1445 Wonthaggi Korumburra Road,Kongwak,3951,03 5657 4224,145.712865,-38.515106
Government,Clarinda Primary School,Primary,1166 Centre Road,Clarinda,3169,03 9544 3231,145.102506,-37.926973
Government,Chelsea Heights Primary School,Primary,194 Thames Promenade,Chelsea Heights,3196,03 9772 4139,145.138991,-38.044683
Government,Wallington Primary School,Primary,608 - 610 Wallington Road,Wallington,3222,03 5250 1841,144.506509,-38.2178
Government,Tecoma Primary School,Primary,1536 Burwood Highway,Tecoma,3160,03 9754 2354,145.3449218,-37.90695837
Government,Torquay P-6 College,Primary,45-55 Grossmans Road,Torquay,3228,03 5261 2360,144.3123081,-38.32176711
Government,Noorinbee Primary School,Primary,594 Monaro Highway,Noorinbee,3890,03 5158 6281,149.16894,-37.516355
Government,Woomelang Group School,Primary,4 Roberts Street,Woomelang,3485,03 5081 2191,142.667723,-35.681377
Government,Emerald Primary School,Primary,10 Heroes Avenue,Emerald,3782,03 5968 4311,145.4424276,-37.93338297
Government,Carrum Primary School,Primary,Walkers Road,Carrum,3197,03 9772 1117,145.126499,-38.078092
Government,Nyora Primary School,Primary,Grundy Avenue,Nyora,3987,03 5659 6240,145.674891,-38.336244
Government,Exford Primary School,Primary,1137 Exford Road,Exford,3338,03 9743 5025,144.558791,-37.745287
Government,Ultima Primary School,Primary,Cnr Cameron & O'Connor Street,Ultima,3544,03 5039 6101,143.266171,-35.476233
Government,Mount Waverley Primary School,Primary,37-45 Park Lane,Mount Waverley,3149,03 9807 1480,145.124091,-37.880907
Government,Marlo Primary School,Primary,Jorgensen Street,Marlo,3888,03 5154 8236,148.535038,-37.796269
Government,Murrumbeena Primary School,Primary,Hobart Road,Murrumbeena,3163,03 9568 1300,145.070409,-37.88617
Government,Wesburn Primary School,Primary,2850 Warburton Highway,Wesburn,3799,03 5967 1302,145.6470677,-37.76869153
Government,Koorlong Primary School,Primary,3645 Benetook Ave,Koorlong,3501,03 5025 7205,142.08485,-34.278056
Government,Warranwood Primary School,Primary,1 Wellington Park Drive,Warranwood,3134,03 9876 6066,145.246981,-37.774347
Government,Willowmavin Primary School,Primary,690 Willowmavin Road,Willowmavin,3764,03 5782 1319,144.888229,-37.259424
Government,Olinda Primary School,Primary,45 Charlemont Lane,Olinda,3788,03 9751 1181,145.3661919,-37.85469614
Government,Carlisle River Primary School,Primary,49 Moomowroong Road,Carlisle River,3239,03 5235 0261,143.395026,-38.563929
Government,Spring Gully Primary School,Primary,104-110 Spring Gully Road,Bendigo,3550,03 5443 7230,144.284363,-36.793403
Government,Mallacoota P-12 College,Pri/Sec,25 Bucknall Street,Mallacoota,3892,03 5158 0254,149.754296,-37.559427
Government,Langwarrin Primary School,Primary,90 Warrandyte Road,Langwarrin,3910,03 9789 7346,145.189632,-38.160372
Government,Cockatoo Primary School,Primary,19-33 Belgrave-Gembrook Road,Cockatoo,3781,03 5968 8017,145.4962066,-37.93929904
Government,Tyabb Railway Station Primary School,Primary,88 The Crescent,Tyabb,3913,03 5977 4324,145.192835,-38.262148
Government,Belgrave South Primary School,Primary,175 Colby Drive,Belgrave South,3160,03 9754 2505,145.3579203,-37.93119813
Government,Yarra Me School,Special,1 Sylvester Grove,Preston,3072,03 9478 8895,145.0242041,-37.67973726
Government,Sydenham - Hillside Primary School,Primary,39-49 Community Hub,Sydenham,3037,03 9361 5300,144.7620961,-37.70218173
Government,Canterbury Primary School,Primary,Molesworth Street,Canterbury,3126,03 9836 4537,145.083713,-37.83105953
Government,The Lake Primary School,Primary,225 Seventeenth Street,Cabarita,3505,03 5023 3468,142.093145,-34.205917
Government,Grey Street Primary School (Traralgon),Primary,30 - 44 Grey Street,Traralgon,3844,03 5174 2055,146.537121,-38.193048
Government,Brunswick North Primary School,Primary,Pearson Street,Brunswick West,3055,03 9383 1400,144.950631,-37.759858
Government,Fawkner Primary School,Primary,Lorne Street,Fawkner,3060,03 9357 3579,144.973528,-37.715887
Government,Alphington Primary School,Primary,Yarralea Street,Alphington,3078,03 9499 2200,145.032006,-37.783523
Government,Austin Hospital School,Special,145 Studley Road,Heidelberg,3084,03 9496 5324,145.058287,-37.755435
Government,Bona Vista Primary School,Primary,520 Bona Vista Road,Bona Vista,3820,03 5627 8435,145.95991,-38.210521
Government,Banyan Fields Primary School,Primary,90 Cadles Road,Carrum Downs,3201,03 9782 1333,145.187192,-38.094766
Government,Norris Bank Primary School,Primary,146 Settlement Road,Bundoora,3083,03 9467 2206,145.0426341,-37.6945118
Government,Macclesfield Primary School,Primary,405 Macclesfield Road,Macclesfield,3782,03 5968 4734,145.4753695,-37.88979216
Government,Black Rock Primary School,Primary,71 Arkaringa Crescent,Black Rock,3193,03 9598 2293,145.021651,-37.969869
Government,Mount Evelyn Primary School,Primary,33 Monbulk Road,Mount Evelyn,3796,03 9736 2233,145.3888224,-37.79092979
Government,Kilsyth Primary School,Primary,Durham Road,Kilsyth,3137,03 9725 4320,145.3149427,-37.80210649
Government,Wonthaggi Primary School,Primary,18 Billson Street,Wonthaggi,3995,03 5672 1600,145.588636,-38.607947
Government,Spotswood Primary School,Primary,Melbourne Road,Spotswood,3015,03 9391 1323,144.881921,-37.830627
Government,Clyde Primary School,Primary,13 Oroya Grove,Clyde,3978,03 5998 5293,145.326386,-38.132323
Government,Noble Park Primary School,Primary,65 Buckley Street,Noble Park,3174,03 9546 8811,145.173906,-37.970627
Government,Deepdene Primary School,Primary,958a Burke Road,Deepdene,3103,03 9817 1917,145.061285,-37.808475
Government,Clifton Creek Primary School,Primary,1020 Deptford Road,Clifton Creek,3875,03 5157 9251,147.659395,-37.70208
Government,Kennington Primary School,Primary,60 Crook Street,Kennington,3550,03 5443 2011,144.307972,-36.768376
Government,Cardinia Primary School,Primary,2405 Ballarto Road,Cardinia,3978,03 5998 8323,145.423852,-38.14572553
Government,Grahamvale Primary School,Primary,85 Grahamvale Road,Grahamvale,3631,03 5821 4219,145.430716,-36.357202
Government,Irymple South Primary School,Primary,3208 Fifteenth Street,Irymple,3498,03 5024 5345,142.190619,-34.252489
Government,Glen Huntly Primary School,Primary,Grange Road,Glen Huntly,3163,03 9571 2933,145.0462294,-37.89377084
Government,Nanneella Estate Primary School,Primary,159 Bennett Road,Nanneella,3561,03 5484 5395,144.778037,-36.312971
Government,Wantirna Primary School,Primary,120 Mountain Highway,Wantirna,3152,03 9801 1938,145.21662,-37.856064
Government,Wonthaggi North Primary School,Primary,Cnr White & Wentworth Road,Wonthaggi,3995,03 5672 4697,145.600234,-38.59882
Government,Melton South Primary School,Primary,38 - 46 Exford Road,Melton South,3338,03 9743 2922,144.574217,-37.708427
Government,Chelsea Primary School,Primary,34-44 Argyle Ave,Chelsea,3196,03 9773 2055,145.122642,-38.0555
Government,Nowa Nowa Primary School,Primary,Gorge Road,Nowa Nowa,3887,03 5155 7225,148.092546,-37.72662
Government,Hampton Primary School,Primary,528 Hampton Street,Hampton,3188,03 9598 1412,145.003476,-37.93339
Government,Victorian College For The Deaf,Special,597 St Kilda Road,Melbourne,3004,03 9510 1706,144.982306,-37.849774
Government,Balliang East Primary School,Primary,4 School Road,Balliang East,3340,03 5369 5148,144.4153538,-37.79497592
Government,Edithvale Primary School,Primary,Edithvale Road,Edithvale,3196,03 9772 1393,145.11297,-38.037494
Government,Orrvale Primary School,Primary,300 Channel Road,Orrvale,3631,03 5829 2490,145.440539,-36.410409
Government,Penders Grove Primary School,Primary,370 Victoria Road,Thornbury,3071,03 9484 1076,145.01427,-37.754517
Government,Underbool Primary School,Primary,67 Cotter Street,Underbool,3509,03 5094 6342,141.814054,-35.170573
Government,Caulfield Junior College,Primary,186 Balaclava Road,Caulfield North,3161,03 9509 6872,145.021561,-37.87211
Government,Seaford Primary School,Primary,Mcrae Street,Seaford,3198,03 9786 1357,145.130496,-38.104436
Government,Wattle Park Primary School,Primary,225 Warrigal Road,Burwood,3125,03 9808 2165,145.098115,-37.843404
Government,Murrabit Group School,Primary,61 Browning Avenue,Murrabit,3579,03 5457 2284,143.950749,-35.528838
Government,Preston West Primary School,Primary,383 Murray Road,Preston,3072,03 9470 1546,144.99553,-37.737366
Government,Thornbury Primary School,Primary,16-22 Hutton Street,Thornbury,3071,03 9484 3254,144.996748,-37.755425
Government,Footscray West Primary School,Primary,Argyle Street,West Footscray,3012,03 9687 1535,144.875221,-37.794938
Government,Wandin North Primary School,Primary,220 Warburton Highway,Wandin North,3139,03 5964 4570,145.4089739,-37.76955183
Government,Gardenvale Primary School,Primary,66 Landcox Street,Brighton East,3187,03 9596 2871,145.015034,-37.904679
Government,Beaumaris Primary School,Primary,79-99 Dalgetty Road,Beaumaris,3193,03 9589 2619,145.037586,-37.985272
Government,Currawa Primary School,Primary,2 Ridge Road,Dookie Campus,3647,03 5828 6581,145.7037867,-36.38474876
Government,Cann River P-12 College,Pri/Sec,20-24 Tamboon Road,Cann River,3890,03 5158 6245,149.153022,-37.5697
Government,Altona Primary School,Primary,109 Blyth Street,Altona,3018,03 9398 2925,144.822742,-37.867708
Government,Devon Meadows Primary School,Primary,Worthing Road,Devon Meadows,3977,03 5998 2304,145.301456,-38.162318
Government,Upper Ferntree Gully Primary School,Primary,Talaskia Road,Upper Ferntree Gully,3156,03 9758 1527,145.314325,-37.895604
Government,Eildon Primary School,Primary,45 High Street,Eildon,3713,03 5774 2074,145.906761,-37.233967
Government,Bittern Primary School,Primary,Portsmouth Road,Bittern,3918,03 5983 9590,145.171678,-38.339857
Government,Colbinabbin Primary School,Primary,56 Mitchell Street,Colbinabbin,3559,03 5432 9330,144.801658,-36.589881
Government,Stanhope Primary School,Primary,48 Midland Highway,Stanhope,3623,03 5857 2514,144.988016,-36.448102
Government,Hurstbridge Primary School,Primary,Main Road,Hurstbridge,3099,03 9718 2386,145.1980792,-37.63616612
Government,Coburg West Primary School,Primary,185-187 Reynard Street,Coburg,3058,03 9386 1286,144.947624,-37.74715
Government,Elwood Primary School,Primary,Scott Street,Elwood,3184,03 9531 2762,144.988364,-37.881505
Government,Mont Albert Primary School,Primary,Barloa Road,Mont Albert,3127,03 9890 1331,145.102727,-37.813079
Government,Dhurringile Primary School,Primary,605 Langham Road,Dhurringile,3610,03 5826 6222,145.239786,-36.543203
Government,Strathewen Primary School,Primary,5 School Ridge Road,Strathewen,3099,03 9714 8278,145.269894,-37.547468
Government,Don Valley Primary School,Primary,Old Dalry Road,Don Valley,3139,03 5967 3321,145.5874128,-37.76019989
Government,Reservoir Primary School,Primary,Duffy Street,Reservoir,3073,03 9460 5798,145.00677,-37.71142
Government,Yallourn North Primary School,Primary,2A Reserve Street,Yallourn North,3825,0429 595 748,146.362224,-38.163208
Government,Toorloo Arm Primary School,Primary,315 Lake Tyers Beach Road,Lake Tyers Beach,3909,03 5156 5517,148.05097,-37.852539
Government,Girgarre Primary School,Primary,528 Winter Road,Girgarre,3624,03 5854 6275,144.973758,-36.398106
Government,Yaapeet Primary School,Primary,4 Woods Street,Yaapeet,3424,03 5395 7260,142.057154,-35.768504
Government,Gladysdale Primary School,Primary,550 Little Yarra Road,Gladysdale,3797,03 5966 6202,145.6509863,-37.82025309
Government,Mildura West Primary School,Primary,219-227 Ninth Street,Mildura,3500,03 5023 1336,142.151865,-34.179621
Government,Moonee Ponds Primary School,Primary,87 Wilson Street,Moonee Ponds,3039,03 9375 2511,144.933694,-37.763411
Government,Kingsville Primary School,Primary,58 Bishop Street,Yarraville,3013,03 9314 5869,144.874657,-37.812595
Government,Kallista Primary School,Primary,72 Monbulk Road,Kallista,3791,03 9755 2633,145.3704501,-37.88529605
Government,Essendon North Primary School,Primary,112 Keilor Road,Essendon North,3041,03 9379 3979,144.903031,-37.741493
Government,Ascot Vale West Primary School,Primary,Langs Rd,Ascot Vale,3032,03 9370 8784,144.911125,-37.78068
Government,Hartwell Primary School,Primary,Milverton St,Camberwell,3124,03 9889 4012,145.084152,-37.847935
Government,Red Cliffs Primary School,Primary,Murray Avenue,Red Cliffs,3496,03 5024 1044,142.185312,-34.311566
Government,Wattle Glen Primary School,Primary,16-24 Reynolds Road,Wattle Glen,3096,03 9438 1259,145.1819987,-37.66811028
Government,Hampton Park Primary School,Primary,Somerville Road,Hampton Park,3976,03 9799 1440,145.252943,-38.030464
Government,Colac West Primary School,Primary,12 Ligar Street,Colac,3250,03 5231 2479,143.579749,-38.336417
Government,Ripponlea Primary School,Primary,25 Carrington Grove,St Kilda East,3183,03 9527 5728,145.005124,-37.874706
Government,Noojee Primary School,Primary,65 School Road,Noojee,3833,03 5628 9558,146.007862,-37.895136
Government,Montmorency Primary School,Primary,60a Rattray Road,Montmorency,3094,03 9434 5944,145.121599,-37.717652
Government,Moriac Primary School,Primary,785 Hendy Main Road,Moriac,3240,03 5266 1298,144.175572,-38.24138556
Government,Ringwood North Primary School,Primary,172 Oban Road,Ringwood North,3134,03 9876 3411,145.230739,-37.79313
Government,Red Cliffs East Primary School,Primary,Block 67a Nerrum Avenue,Red Cliffs,3496,03 5024 1147,142.214274,-34.305108
Government,Lloyd Street Primary School,Primary,Lloyd Street,Malvern East,3145,03 9573 4600,145.056108,-37.872416
Government,Bayswater North Primary School,Primary,Stuart Street,Bayswater North,3153,03 9729 1744,145.295621,-37.8288
Government,Westbreen Primary School,Primary,2-10 Pascoe Street,Pascoe Vale,3044,03 9306 9481,144.936217,-37.716056
Government,Point Cook Prep - Year 9 College,Pri/Sec,18 - 50 Ponsford Drive,Point Cook,3030,03 8348 7100,144.725689,-37.893593
Government,Footscray North Primary School,Primary,14 Rosamond Road,Footscray,3011,03 9317 9047,144.883372,-37.787746
Government,Airly Primary School,Primary,226 Airly Estate Road,Airly,3851,03 5149 8251,147.113897,-38.025712
Government,Camberwell South Primary School,Primary,Peate Avenue,Glen Iris,3146,03 9889 4295,145.062612,-37.847905
Government,Parkdale Primary School,Primary,305-311 Nepean Highway,Parkdale,3195,03 9580 1451,145.082916,-37.992693
Government,Hughesdale Primary School,Primary,Brine Street,Hughesdale,3166,03 9570 4808,145.077639,-37.905839
Government,Westgarth Primary School,Primary,45 Brooke St & 311 Clarke St,Northcote,3070,03 9481 5577,145.005561,-37.776471
Government,Auburn South Primary School,Primary,419 Tooronga Road,Hawthorn East,3123,03 9882 2140,145.044744,-37.83953
Government,Aspendale Primary School,Primary,23 Laura Street,Aspendale,3195,03 9580 3255,145.099756,-38.020273
Government,Eltham North Primary School,Primary,35-47 Wattletree Road,Eltham North,3095,03 9439 9639,145.1508655,-37.70011091
Government,Merrivale Primary School,Primary,158 Merrivale Drive,Warrnambool,3280,03 5562 7172,142.456146,-38.378018
Government,Dandenong West Primary School,Primary,32 Birdwood Avenue,Dandenong,3175,03 9792 2868,145.200416,-37.980741
Government,Yarra Road Primary School,Primary,222 - 228 Yarra Road,Croydon,3136,03 9723 4182,145.272227,-37.766401
Government,Aberfeldie Primary School,Primary,1 Doone Street,Essendon,3040,03 9337 8084,144.895552,-37.7566
Government,Manifold Heights Primary School,Primary,20-24 Strachan Avenue,Manifold Heights,3218,03 5229 9643,144.332835,-38.136151
Government,Nungurner Primary School,Primary,455 Nungurner Road,Nungurner,3909,03 5156 3232,147.888387,-37.865917
Government,Dingley Primary School,Primary,111-115 Centre Dandenong Road,Dingley Village,3172,03 9551 3555,145.131935,-37.982679
Government,Cardross Primary School,Primary,415 Dairtnunk Avenue,Cardross,3496,03 5024 1267,142.145041,-34.288009
Government,Albion Primary School,Primary,Adelaide Street,Albion,3020,03 9311 1325,144.81994,-37.777939
Government,Lemnos Primary School,Primary,Lemnos Road,Lemnos,3631,03 5829 9287,145.462459,-36.358053
Government,Tarwin Lower Primary School,Primary,School Road,Tarwin Lower,3956,03 5663 5263,145.86706,-38.702574
Government,Nepean Special School,Special,33 Klauer St,Seaford,3198,03 9786 9111,145.14233,-38.119433
Government,Brunswick South West Primary School,Primary,South Daly Street,Brunswick West,3055,03 9387 6886,144.943182,-37.77057
Government,Bell Primary School,Primary,78A Oakover Road,Preston,3072,03 9480 5622,144.990725,-37.747893
Government,Chatham Primary School,Primary,Weybridge Street,Surrey Hills,3127,03 9830 1933,145.091885,-37.817113
Government,Caulfield South Primary School,Primary,24 Bundeera Road,Caulfield South,3162,03 9578 3718,145.030446,-37.89525
Government,Ashburton Primary School,Primary,Fakenham Road,Ashburton,3147,03 9885 2559,145.083814,-37.86221
Government,Bentleigh West Primary School,Primary,23 Brewer Road,Bentleigh,3204,03 9557 1228,145.026767,-37.920585
Government,Seaspray Primary School,Primary,15 Prospect Road,Seaspray,3851,03 5146 4393,147.170623,-38.356489
Government,Anglesea Primary School,Primary,85 Camp Road,Anglesea,3230,03 5263 1231,144.191837,-38.39678
Government,Briar Hill Primary School,Primary,25 Gladstone Road,Briar Hill,3088,03 9435 1633,145.116219,-37.708307
Government,Zeerust Primary School,Primary,245 Zeerust Road,Zeerust,3634,03 5829 8282,145.405067,-36.277196
Government,Mckinnon Primary School,Primary,253 Tucker Road,Ormond,3204,03 9578 1851,145.052795,-37.908049
Government,Clayton South Primary School,Primary,539 Clayton Road,Clayton South,3169,03 9558 0599,145.11622,-37.94054
Government,Ivanhoe East Primary School,Primary,35 Warncliffe Road,Ivanhoe East,3079,03 9499 2171,145.059453,-37.774587
Government,Cobains Primary School,Primary,3 Crofts Road,Cobains,3851,03 5149 8274,147.132279,-38.074794
Government,Mildura South Primary School,Primary,593 Deakin Avenue,Mildura South,3501,03 5023 2148,142.126787,-34.213477
Government,Tate Street Primary School Geelong,Primary,Tate Street,Geelong East,3219,03 5221 2780,144.379195,-38.166053
Government,Brunswick North West Primary School,Primary,Culloden Street,Brunswick West,3055,03 9386 4624,144.943099,-37.756539
Government,Katandra West Primary School,Primary,17-27 Bankin Street,Katandra West,3634,03 5828 3350,145.560714,-36.225467
Government,Fleetwood Primary School,Primary,97 Fleetwood Drive,Narre Warren,3805,03 9705 2281,145.317037,-38.039356
Government,Sandringham East Primary School,Primary,9 Holloway Road,Sandringham,3191,03 9598 1704,145.022221,-37.956668
Government,Seaholme Primary School,Primary,Cnr Millers Rd & Civic Parade,Seaholme,3018,03 9398 2806,144.8403785,-37.86463903
Government,Somers Primary School,Primary,87 Camp Hill Road,Somers,3927,03 5983 5546,145.164606,-38.392117
Government,Travancore School,Special,50 Flemington Street,TRAVANCORE,3032,03 9345 6053,144.934867,-37.781903
Government,Upwey Primary School,Primary,15 Darling Avenue,Upwey,3158,03 9754 2369,145.3328027,-37.90286736
Government,Coburg North Primary School,Primary,180 O'Hea Street,Coburg,3058,03 9354 1660,144.951883,-37.736032
Government,Rosanna Primary School,Primary,Grandview Grove,Rosanna,3084,03 9457 2592,145.062899,-37.735395
Government,Wantirna South Primary School,Primary,16 Tyner Road,Wantirna South,3152,03 9801 1900,145.237339,-37.872529
Government,Strathmore Primary School,Primary,14-34 Lloyd Street,Strathmore,3041,03 9379 5693,144.917112,-37.735557
Government,Balwyn North Primary School,Primary,Buchanan Avenue,Balwyn North,3104,03 9859 4258,145.0764973,-37.79638413
Government,Solway Primary School,Primary,Winton Road,Ashburton,3147,03 9885 2421,145.07283,-37.873238
Government,Wangaratta West Primary School,Primary,47-49 Phillipson Street,Wangaratta,3677,03 5721 3491,146.304421,-36.35413
Government,Mount Beauty Primary School,Primary,Lakeside Avenue,Mount Beauty,3699,03 5754 4354,147.17159,-36.739498
Government,Newlands Primary School,Primary,2-26 Murphy Street,Preston,3072,03 9354 2928,144.984747,-37.730062
Government,Somers School Camp,Primary,124 Lord Somers Road,Somers,3927,03 5983 5302,145.145747,-38.388785
Government,Newborough Primary School,Primary,24 Murray Road,Newborough,3825,03 5127 1448,146.292787,-38.188582
Government,Traralgon (Stockdale Road) Primary School,Primary,7 Stockdale Road,Traralgon,3844,03 5174 1607,146.524169,-38.18998
Government,Gowrie Street Primary School Shepparton,Primary,1-19 Gowrie Street,Shepparton,3630,03 5821 3100,145.396348,-36.366802
Government,Tootgarook Primary School,Primary,Carmichael Street,Tootgarook,3941,03 5985 2864,144.857321,-38.369477
Government,Moe (South Street) Primary School,Primary,34 South Street,Moe,3825,03 5127 1512,146.260064,-38.183188
Government,Roslyn Primary School,Primary,183 Roslyn Road,Belmont,3216,03 5243 3538,144.329816,-38.174006
Government,Newport Gardens Primary School,Primary,Cnr Woods St & Maddox Rd,Newport,3015,03 9391 2168,144.867692,-37.84488
Government,St Georges Road Primary School Shepparton,Primary,120 St Georges Road,Shepparton,3630,03 5821 3383,145.405737,-36.390092
Government,Malvern Valley Primary School,Primary,Abbotsford Avenue,Malvern East,3145,03 9569 5820,145.081553,-37.880801
Government,Newborough East Primary School,Primary,300 Old Sale Road,Newborough,3825,03 5126 1399,146.29376,-38.179
Government,Belmore School,Special,49 Stroud Street,Balwyn,3103,03 9859 8762,145.081145,-37.804284
Government,Croxton Special School,Special,159-165 Beaconsfield Parade,Northcote,3070,03 9482 5482,144.9873978,-37.76399724
Government,Herne Hill Primary School,Primary,2-24 Gwynne Street,Hamlyn Heights,3218,03 5278 4117,144.332405,-38.129536
Government,Frankston East Primary School,Primary,6A Ashleigh Avenue,Frankston,3199,03 9789 9552,145.145122,-38.14633
Government,Selby Primary School,Primary,2 Morley Street,Selby,3159,03 9754 2675,145.366817,-37.91135772
Government,Reservoir East Primary School,Primary,58 Boldrewood Parade,Reservoir,3073,03 9460 1569,145.021837,-37.719975
Government,Tucker Road Bentleigh Primary School,Primary,16 Tucker Rd,Bentleigh,3204,03 9557 2044,145.049012,-37.932543
Government,Katunga Primary School,Primary,24 CARTER STREET,Katunga,3640,03 5864 6365,145.455613,-35.998559
Government,Ballarat North Primary School,Primary,513 Landsborough Street,Ballarat,3350,03 5333 3387,143.8628108,-37.54009926
Government,Bandiana Primary School,Primary,44 Leumeah Road,Bandiana,3694,02 6056 2826,146.927135,-36.152965
Government,Greythorn Primary School,Primary,Reading Avenue,Balwyn North,3104,03 9857 9762,145.09588,-37.801459
Government,Warragul North Primary School,Primary,5 O'Dowds Road,Warragul,3820,03 5623 4066,145.939854,-38.148107
Government,Horsham West and Haven Primary School,Primary,24 Hillary Street,Horsham,3400,03 5382 1285,142.179993,-36.717424
Government,Traralgon (Kosciuszko Street) Primary School,Primary,36 Kosciuszko Street,Traralgon,3844,03 5174 2512,146.515364,-38.199268
Government,Traralgon (Liddiard Road) Primary School,Primary,148 Liddiard Road,Traralgon,3844,03 5174 1795,146.551488,-38.201551
Government,Eastwood Primary School,Primary,Alexandra Road,Ringwood East,3135,03 9870 6103,145.25247,-37.817183
Government,Pascoe Vale South Primary School,Primary,411-429 Reynard Street,Pascoe Vale South,3044,03 9386 4301,144.935615,-37.745716
Government,Lalor Primary School,Primary,26 Maxwell Street,Lalor,3075,03 9465 3037,145.0258521,-37.67067484
Government,Reservoir West Primary School,Primary,5a Carrington Road,Reservoir,3073,03 9478 8211,144.990229,-37.722135
Government,Coatesville Primary School,Primary,21 Mackie Road,Bentleigh East,3165,03 9570 1652,145.073236,-37.920339
Government,Old Orchard Primary School,Primary,88 Koonung Road,Blackburn North,3130,03 9877 7899,145.152388,-37.807591
Government,Huntingdale Primary School,Primary,Grange Street,Oakleigh South,3167,03 9544 2318,145.102276,-37.913101
Government,Box Hill North Primary School,Primary,Elizabeth Street,Box Hill North,3129,03 9890 5023,145.123311,-37.800792
Government,Ferntree Gully North Primary School,Primary,111 Forest Road,Ferntree Gully,3156,03 9758 1662,145.299422,-37.874787
Government,Ararat West Primary School,Primary,Kneebone Street,Ararat,3377,03 5352 1909,142.920999,-37.277361
Government,Oak Park Primary School,Primary,Willett Avenue,Oak Park,3046,03 9306 9182,144.914553,-37.715675
Government,Dandenong North Primary School,Primary,117-125 Cleeland Street,Dandenong,3175,03 9794 7899,145.215422,-37.976563
Government,Bairnsdale West Primary School,Primary,Cnr Wallace & Mckean Streets,Bairnsdale,3875,03 5152 3516,147.608096,-37.824541
Government,Kalianna Special School,Special,Nolan Street,Bendigo,3550,03 5442 1311,144.278655,-36.737835
Government,Harrisfield Primary School,Primary,495 Princes Hwy,Noble Park,3174,03 9546 9210,145.179526,-37.954424
Government,Pascoe Vale North Primary School,Primary,Kent Road,Pascoe Vale,3044,03 9354 3343,144.94848,-37.721258
Government,Belle Vue Primary School,Primary,20 Highview Road,Balwyn North,3104,03 9859 6123,145.078733,-37.781943
Government,Oberon Primary School,Primary,28 Dorothy Avenue,Belmont,3216,03 5243 1613,144.34199,-38.179439
Government,Moe Primary School,Primary,Cnr Elizabeth & King Streets,Moe,3825,03 5127 2607,146.246722,-38.189727
Government,St Albans East Primary School,Primary,7-17 Station Avenue,St Albans,3021,03 9366 2071,144.811045,-37.741972
Government,Bourchier Street Primary School Shepparton,Primary,Cnr Bourchier St & Balaclava R,Shepparton,3630,03 5821 3488,145.412966,-36.366538
Government,Swan Hill North Primary School,Primary,118 Chapman Street,Swan Hill,3585,03 5032 4577,143.546066,-35.331787
Government,Sunshine Heights Primary School,Primary,1-19 Mailey Street,Sunshine,3020,03 8311 7100,144.817806,-37.792214
Government,Sunshine North Primary School,Primary,65 - 71 Suffolk Road,Sunshine North,3020,03 9311 2400,144.837349,-37.772179
Government,Banyule Primary School,Primary,Banyule Road,Rosanna,3084,03 9459 0732,145.077646,-37.743369
Government,Portland South Primary School,Primary,133-141 Edgar Street,Portland,3305,03 5523 2911,141.610615,-38.365275
Government,Rosanna Golf Links Primary School,Primary,Interlaken Parade,Rosanna,3084,03 9457 4178,145.074532,-37.735116
Government,Cheltenham East Primary School,Primary,Silver Street,Cheltenham,3192,03 9583 5746,145.068353,-37.965256
Government,Cranbourne South Primary School,Primary,Pearcedale Road,Cranbourne South,3977,03 9782 2999,145.24508,-38.14839
Government,Yarrunga Primary School,Primary,38 - 50 White Street,Wangaratta,3677,03 5721 2682,146.317178,-36.37256
Government,Ballarat Specialist School,Special,25 Gillies Street North,Lake Gardens,3355,03 5334 1302,143.8186955,-37.55244058
Government,Preston North East Primary School,Primary,93 Tyler Street,East Preston,3072,03 9478 8078,145.029455,-37.733052
Government,Orbost North Primary School,Primary,Rupert St,Orbost,3888,03 5154 1217,148.466001,-37.697788
Government,Nelson Park School,Special,Libau Avenue,Bell Park,3215,03 5278 3620,144.337703,-38.114241
Government,Craigieburn Primary School,Primary,87 - 91 Grand Boulevard,Craigieburn,3064,03 9308 1228,144.932871,-37.582572
Government,Warrnambool East Primary School,Primary,Ward Street,Warrnambool,3280,03 5562 4100,142.499578,-38.389589
Government,Colac South West Primary School,Primary,238 Wilson Street,Colac,3250,03 5232 1170,143.572026,-38.343634
Government,George Street Primary School - Hamilton,Primary,32-48 George Street,Hamilton,3300,03 5571 1478,142.034454,-37.747887
Government,Valkstone Primary School,Primary,Valkstone Street,Bentleigh East,3165,03 9570 3986,145.057169,-37.914608
Government,Overport Primary School,Primary,Towerhill Road,Frankston,3199,03 9783 8777,145.126972,-38.160488
Government,Wembley Primary School,Primary,32 St Leonards Ave,Yarraville,3013,03 9314 7054,144.874845,-37.82048
Government,Rosamond Special School,Special,276 Ballarat Road,Braybrook,3019,03 9311 1511,144.8554086,-37.77963666
Government,Bonbeach Primary School,Primary,29-63 Breeze Street,Bonbeach,3196,03 9772 3471,145.12674,-38.066598
Government,Heatherhill Primary School,Primary,959 Heatherton Road,Springvale,3171,03 9546 7562,145.158474,-37.962711
Government,Beaumaris North Primary School,Primary,Wood Street,Beaumaris,3193,03 9589 5449,145.036273,-37.974138
Government,Hamlyn Banks Primary School,Primary,2-24 Chaucer Street,Hamlyn Heights,3215,03 5278 3100,144.327808,-38.117972
Government,Yarraman Oaks Primary School,Primary,27 Liege Avenue,Noble Park,3174,03 9792 4406,145.191525,-37.970289
Government,Mount Pleasant Road Nunawading Primary School,Primary,Mt Pleasant Road,Nunawading,3131,03 9878 1730,145.180128,-37.82871
Government,Glenroy West Primary School,Primary,York Street,Glenroy,3046,03 9306 8955,144.90843,-37.705045
Government,Dandenong South Primary School,Primary,52 Kirkham Road,Dandenong,3175,03 9792 3726,145.212015,-37.998498
Government,St Albans North Primary School,Primary,George Street,St Albans,3021,03 9366 2029,144.801314,-37.731684
Government,Avondale Primary School,Primary,Clarendon St,Avondale Heights,3034,03 9318 1755,144.861529,-37.766157
Government,Beverley Hills Primary School,Primary,2 - 14 Cassowary Street,Doncaster East,3109,03 9842 1428,145.15887,-37.796933
Government,Wodonga West Primary School,Primary,Lawrence Street,Wodonga,3690,02 6024 1188,146.876708,-36.122414
Government,Frankston Heights Primary School,Primary,10 Kalmia Street,Frankston,3199,03 9783 4988,145.146711,-38.162278
Government,Kerrimuir Primary School,Primary,178 Dorking Road,Box Hill North,3129,03 9898 1494,145.135123,-37.803634
Government,Heathmont East Primary School,Primary,Louis Street,Heathmont,3135,03 9729 5439,145.257688,-37.830346
Government,Strathmore North Primary School,Primary,Mascoma Street,Strathmore,3041,03 9379 6575,144.916146,-37.724859
Government,Oakleigh South Primary School,Primary,Riley Street,Oakleigh South,3167,03 9570 1016,145.0946,-37.923377
Government,Thomastown East Primary School,Primary,82 Cedar Street,Thomastown,3074,03 9465 3032,145.0251341,-37.680455
Government,Mount Waverley Heights Primary School,Primary,36 Solomon Street,Mount Waverley,3149,03 9807 8120,145.11176,-37.889201
Government,East Bentleigh Primary School,Primary,Bignell Road,East Bentleigh,3165,03 9570 3525,145.069921,-37.934649
Government,Watsonia Primary School,Primary,Nell Street West,Watsonia,3087,03 9435 2917,145.086625,-37.70643
Government,Parktone Primary School,Primary,Robert Street,Parkdale,3195,03 9580 1207,145.087618,-37.98704
Government,Antonio Park Primary School,Primary,631-639 Whitehorse Road,Mitcham,3132,03 9874 4371,145.206052,-37.816199
Government,Kingsbury Primary School,Primary,1A Maryborough Avenue,Kingsbury,3083,03 9462 2711,145.037204,-37.716025
Government,Katandra School,Special,2 Walsh Street,Ormond,3204,03 9578 6991,145.040738,-37.902061
Government,Ardeer Primary School,Primary,Suspension Street,Ardeer,3022,03 9363 1194,144.800473,-37.780957
Government,Westall Primary School,Primary,Fairbank Road,Clayton South,3169,03 9546 8964,145.135824,-37.942431
Government,Tullamarine Primary School,Primary,Broadmeadows Road,Tullamarine,3043,03 9338 2826,144.87957,-37.702204
Government,Guthridge Primary School,Primary,Dawson Street,Sale,3850,03 5144 3633,147.083829,-38.095698
Government,Park Orchards Primary School,Primary,1-3 Bowmore Avenue,Park Orchards,3114,03 9876 1249,145.215817,-37.779724
Government,Albion North Primary School,Primary,67-73 Furlong Road,Sunshine North,3020,03 9312 5900,144.823899,-37.76269
Government,Blackburn Lake Primary School,Primary,12 - 14 Florence Street,Blackburn,3130,03 9894 2855,145.166097,-37.827601
Government,Laburnum Primary School,Primary,Janet Street,Blackburn,3130,03 9898 5811,145.138753,-37.827083
Government,Rollins Primary School,Primary,Wolseley Grove,Bell Post Hill,3215,03 5278 3022,144.32709,-38.101293
Government,Heatherwood School,Special,370-380 Springvale Road,Donvale,3111,03 9842 8319,145.1780362,-37.80033733
Government,Bellaire Primary School,Primary,59-71 Larcombe Street,Highton,3216,03 5243 5203,144.319575,-38.179471
Government,Pinewood Primary School,Primary,27-35 Pinewood Drive,Mount Waverley,3149,03 8847 3200,145.14221,-37.890157
Government,Broadmeadows Primary School,Primary,62-70 Blair Street,Broadmeadows,3047,03 9302 6060,144.9291021,-37.68042434
Government,Moomba Park Primary School,Primary,111 Anderson Road,Fawkner,3060,03 9359 2028,144.966573,-37.695789
Government,Keilor Heights Primary School,Primary,Ronald Grove,Keilor East,3033,03 9336 1739,144.866495,-37.737516
Government,Ainslie Parklands Primary School,Primary,Hinkley Ave,Croydon,3136,03 9870 1566,145.264244,-37.793786
Government,Parkmore Primary School,Primary,38-54 Jolimont Road,Forest Hill,3131,03 9878 5556,145.175731,-37.843634
Government,Lara Primary School,Primary,120 Flinders Avenue,Lara,3212,03 5282 1427,144.410715,-38.015802
Government,Mullum Primary School,Primary,18 Panfield Avenue,Ringwood,3134,03 9870 2120,145.239443,-37.797737
Government,Cranbourne Park Primary School,Primary,1 Tucker Street,Cranbourne,3977,03 5996 1142,145.277482,-38.103932
Government,Viewbank Primary School,Primary,Nevin Parade,Viewbank,3084,03 9459 1512,145.08999,-37.73473
Government,Greenhills Primary School,Primary,Mine Street,Greensborough,3088,03 9435 4181,145.118648,-37.692278
Government,Upwey South Primary School,Primary,91 Morris Road,Upwey,3158,03 9757 0200,145.3268393,-37.91313917
Government,Simpson Primary School,Primary,1 Cockayne Street,Simpson,3266,03 5594 3298,143.20788,-38.498615
Government,Invergordon Primary School,Primary,1292 Invergordon Road,Invergordon,3636,03 5865 5287,145.611098,-36.145694
Government,Eltham East Primary School,Primary,16 Grove Street,Eltham,3095,03 9439 9793,145.1551034,-37.71147745
Government,Belvedere Park Primary School,Primary,30 Belvedere Road,Seaford,3198,03 9786 3205,145.146813,-38.109716
Government,Essex Heights Primary School,Primary,22-30 Essex Road,Mount Waverley,3149,03 9807 4944,145.115107,-37.862945
Government,Mountain Gate Primary School,Primary,Adele Avenue,Ferntree Gully,3156,03 9758 2811,145.268773,-37.886296
Government,Fairhills Primary School,Primary,Manuka Drive,Ferntree Gully,3156,03 9758 3007,145.265708,-37.869247
Government,Boronia West Primary School,Primary,25 Tormore Road,Boronia,3155,03 9762 2510,145.278481,-37.858563
Government,Southmoor Primary School,Primary,Rica Street,Moorabbin,3189,03 9555 1235,145.055962,-37.941834
Government,Ringwood Heights Primary School,Primary,60 Summit Crescent,Ringwood North,3134,03 9870 3050,145.217809,-37.80286
Government,Glenroy Specialist School,Special,208 Hilton St,Glenroy,3046,03 9304 2263,144.9205292,-37.69935785
Government,Ruskin Park Primary School,Primary,18 - 20 Ruskin Ave,Croydon,3136,03 9723 3886,145.29616,-37.798944
Government,Emerson School,Special,1430 Heatherton Road,Dandenong,3175,03 9791 8900,145.208098,-37.969865
Government,Fyans Park Primary School,Primary,37 Cook Street,Newtown,3220,03 5221 3772,144.326861,-38.153799
Government,Karingal Primary School,Primary,Mallum Avenue,Frankston,3199,03 9789 0514,145.152277,-38.137924
Government,Mount View Primary School,Primary,Shepherd Road,Glen Waverley,3150,03 9560 0471,145.178848,-37.883549
Government,Syndal South Primary School,Primary,14 Montgomery Avenue,Mount Waverley,3149,03 9802 5277,145.142973,-37.879094
Government,Montmorency South Primary School,Primary,64 Buena Vista Drive,Montmorency,3094,03 9439 6201,145.129831,-37.725583
Government,Berendale School,Special,2 Berend Street,Hampton East,3188,03 9555 6141,145.031808,-37.938959
Government,Altona North Primary School,Primary,51 Cresser Street,Altona North,3025,03 9391 4572,144.849365,-37.836928
Government,Burwood Heights Primary School,Primary,Cnr Hawthorn & Mahoneys Rds,Burwood East,3151,03 9803 8311,145.1627393,-37.84674269
Government,Stawell West Primary School,Primary,80-88 Cooper Street,Stawell,3380,03 5358 1661,142.771294,-37.065765
Government,Watsonia Heights Primary School,Primary,61 Henry Street,Greensborough,3088,03 9435 4617,145.100728,-37.715299
Government,Forest Street Primary School,Primary,Cnr Forest & Hancock Streets,Wendouree,3355,03 5339 2110,143.8358417,-37.52329159
Government,Pembroke Primary School,Primary,Pembroke Road,Mooroolbark,3138,03 9725 6689,145.3254923,-37.79595862
Government,Mahogany Rise Primary School,Primary,25 Forster Avenue,Frankston North,3200,03 9786 3211,145.157399,-38.125617
Government,Wilmot Road Primary School Shepparton,Primary,84-90 Wilmot Road,Shepparton,3630,03 5821 4953,145.405898,-36.398498
Government,Bundoora Primary School,Primary,Balmoral Avenue,Bundoora,3083,03 9467 2601,145.062989,-37.707339
Government,University Park Primary School,Primary,Lister Street,St Albans,3021,03 9366 1356,144.803018,-37.755063
Government,St Albans Heights Primary School,Primary,Norwich Street,St Albans,3021,03 9366 3127,144.809689,-37.748474
Government,Kerang South Primary School,Primary,Mitchell Street,Kerang,3579,03 5450 3900,143.927155,-35.741229
Government,Hume Valley School,Special,15- 41 Koroit Avenue,Broadmeadows,3047,03 9309 3477,144.927013,-37.672396
Government,Mentone Park Primary School,Primary,Broome Avenue,Mentone,3194,03 9583 4935,145.082797,-37.98001
Government,Donvale Primary School,Primary,Elata Street,Donvale,3111,03 9842 3373,145.173655,-37.800486
Government,Bell Park North Primary School,Primary,16-26 Barton Street,Bell Park,3215,03 5278 3548,144.335909,-38.10606747
Government,Boronia Heights Primary School,Primary,Landscape Drive,Boronia,3155,03 9729 2614,145.296485,-37.844571
Government,Glenallen School,Special,7 Allen Street,Glen Waverley,3150,03 9561 1966,145.1617465,-37.8883595
Government,Churchill Primary School,Primary,Coleman Parade,Churchill,3842,03 5122 1343,146.415424,-38.311104
Government,Montpellier Primary School,Primary,21 Lambhill Crescent,Highton,3216,03 5243 2521,144.316119,-38.166268
Government,Bayswater South Primary School,Primary,Enfield Drive,Bayswater,3153,03 9729 2862,145.261347,-37.854897
Government,Seaford North Primary School,Primary,81 Hallifax Street,Seaford,3198,03 9786 5674,145.133607,-38.09016
Government,Morwell Park Primary School,Primary,76 - 82 Vary Street,Morwell,3840,03 5134 1793,146.42446,-38.227932
Government,Lalor East Primary School,Primary,39 Cleveland Street,Thomastown,3074,03 9465 4350,145.034964,-37.67653306
Government,Jackson School,Special,40-46 Mulhall Drive,St Albans,3021,03 9366 4322,144.814184,-37.756022
Government,Carlton Primary School,Primary,Cnr Palmerston & Drummond Sts,Carlton,3053,03 9347 6022,144.97045,-37.795602
Government,Oberon South Primary School,Primary,Tintinara Crescent,Belmont,3216,03 5243 2997,144.339463,-38.188071
Government,Templestowe Valley Primary School,Primary,15 Birchwood Avenue,Lower Templestowe,3107,03 8850 5777,145.10938,-37.760611
Government,Highvale Primary School,Primary,33 Ashton Street,Glen Waverley,3150,03 9887 8000,145.17421,-37.866403
Government,Watsonia North Primary School,Primary,16 Sharpes Road,Watsonia North,3087,03 9435 1285,145.080775,-37.700521
Government,Wooranna Park Primary School,Primary,89-105 Carlton Road,Dandenong,3175,03 9795 2007,145.216821,-37.960303
Government,Knox Park Primary School,Primary,Kathryn Road,Knoxfield,3180,03 9763 6533,145.251402,-37.883627
Government,Birralee Primary School,Primary,Heyington Avenue,Doncaster,3108,03 9848 4996,145.113341,-37.793285
